[{"zone":"EL_RAVAL","rating":5.0,"name":"El_Campus_Raval__UB","longitude":41.384077185,"latitude":2.1668999342,"category":"ATRACCIONES","address":"C_Montalegre,6"},
{"zone":"EL_RAVAL","rating":5.0,"name":"Hotel_Peninsular__HB003154","longitude":41.3796257875,"latitude":2.1725113181,"category":"ATRACCIONES","address":"C_Sant_Pau,34"},
{"zone":"EL_RAVAL","rating":5.0,"name":"Reial_Academia_de_Ciencies_i_Arts_de_Barcelona","longitude":41.3841759272,"latitude":2.170740864,"category":"ATRACCIONES","address":"C_la_Rambla,115"},
{"zone":"EL_RAVAL","rating":5.0,"name":"Edifici_de_lAntic_Hospital_de_la_Santa_Creu","longitude":41.3810888194,"latitude":2.1698114686,"category":"ATRACCIONES","address":"C_Hospital,56"},
{"zone":"EL_RAVAL","rating":5.0,"name":"Casa_Doctor_Genove","longitude":41.3814251409,"latitude":2.1728234402,"category":"ATRACCIONES","address":"C_Rambla,77"},
{"zone":"EL_RAVAL","rating":5.0,"name":"Associacio_Cultural_El_Raval_El_Lokal","longitude":41.379451063,"latitude":2.1670945925,"category":"ATRACCIONES","address":"C_Cera,1"},
{"zone":"EL_RAVAL","rating":5.0,"name":"Centre_de_Cultura_Contemporania_de_Barcelona","longitude":41.3839145023,"latitude":2.1668129104,"category":"ATRACCIONES","address":"C_Montalegre,5"},
{"zone":"EL_RAVAL","rating":5.0,"name":"Unio_de_Cooperatives_per_a_la_Fabricacio_de_Pastes_per_a_Sopa","longitude":41.3786757032,"latitude":2.1681069097,"category":"ATRACCIONES","address":"C_Aurora,11"},
{"zone":"EL_RAVAL","rating":5.0,"name":"Tinta_Invisible_Edicions","longitude":41.382067549,"latitude":2.1650784377,"category":"ATRACCIONES","address":"C_Lleo,6"},
{"zone":"EL_RAVAL","rating":5.0,"name":"Filmoteca_de_Catalunya","longitude":41.3786336982,"latitude":2.1710269737,"category":"ATRACCIONES","address":"Placa_de_Salvador_Segui,1"},
{"zone":"EL_RAVAL","rating":5.0,"name":"Eix_Comercial_del_Raval","longitude":41.3788367072,"latitude":2.1738924748,"category":"ATRACCIONES","address":"C_Nou_de_la_Rambla,14"},
{"zone":"EL_RAVAL","rating":5.0,"name":"Monestir_de_Sant_Pau_del_Camp","longitude":41.3765007634,"latitude":2.1693145025,"category":"ATRACCIONES","address":"C_Sant_Pau,99"},
{"zone":"EL_RAVAL","rating":5.0,"name":"Mercat_Boqueria__Sant_Josep","longitude":41.3820488944,"latitude":2.1722707591,"category":"ATRACCIONES","address":"Carrer_la_Rambla,89"},
{"zone":"EL_RAVAL","rating":5.0,"name":"Palau_de_la_Virreina","longitude":41.3825297391,"latitude":2.1717263988,"category":"ATRACCIONES","address":"la_Rambla,99"},
{"zone":"EL_RAVAL","rating":5.0,"name":"Espai_Contrabandos","longitude":41.379678048,"latitude":2.1715573556,"category":"ATRACCIONES","address":"C_Junta_de_Comerc,18"},
{"zone":"EL_RAVAL","rating":5.0,"name":"Reials_Drassanes_de_Barcelona","longitude":41.3759817568,"latitude":2.1760573876,"category":"ATRACCIONES","address":"Av_Drassanes,1"},
{"zone":"EL_RAVAL","rating":5.0,"name":"Bar_Marsella","longitude":41.378278204,"latitude":2.1712236053,"category":"ATRACCIONES","address":"C_Sant_Pau,65"},
{"zone":"EL_RAVAL","rating":5.0,"name":"World_Trade_Center","longitude":41.3710906411,"latitude":2.1823636758,"category":"ATRACCIONES","address":"Moll_Barcelona,1"},
{"zone":"EL_RAVAL","rating":5.0,"name":"Palau_Guell","longitude":41.3790871852,"latitude":2.1744395577,"category":"ATRACCIONES","address":"Carrer_Nou_de_la_Rambla,3"},
{"zone":"EL_RAVAL","rating":5.0,"name":"El_Raval","longitude":41.3784325982,"latitude":2.1701759698,"category":"ATRACCIONES","address":"Rbla_Raval,37"},
{"zone":"EL_RAVAL","rating":5.0,"name":"Facultat_de_Comunicacio_i_Relacions_Internacionals_Blanquerna__URL","longitude":41.3835717653,"latitude":2.1662962368,"category":"ATRACCIONES","address":"Pl_Joan_Coromines,1"},
{"zone":"EL_RAVAL","rating":5.0,"name":"Carrer_de_la_Riereta","longitude":41.3792608481,"latitude":2.1669844143,"category":"ATRACCIONES","address":"C_Riereta,1"},
{"zone":"EL_RAVAL","rating":5.0,"name":"El_Vapor___Fabrica_Bonaplata","longitude":41.38494614,"latitude":2.1667630471,"category":"ATRACCIONES","address":"C_Tallers,75"},
{"zone":"EL_RAVAL","rating":5.0,"name":"Antic_Dispensari_Antituberculos","longitude":41.3843359522,"latitude":2.1651739813,"category":"ATRACCIONES","address":"C_Torres_i_Amat,8"},
{"zone":"EL_RAVAL","rating":5.0,"name":"La_Rambla_del_Raval","longitude":41.3788856276,"latitude":2.1691786661,"category":"ATRACCIONES","address":"Rbla_Raval,12"},
{"zone":"EL_RAVAL","rating":5.0,"name":"Museu_Maritim_de_Barcelona","longitude":41.3759814005,"latitude":2.1760592098,"category":"ATRACCIONES","address":"Avinguda_de_les_Drassanes,1"},
{"zone":"EL_RAVAL","rating":5.0,"name":"Reial_Academia_de_Medicina_de_Catalunya","longitude":41.3815241182,"latitude":2.1689749731,"category":"ATRACCIONES","address":"C_Carme,47"},
{"zone":"EL_RAVAL","rating":5.0,"name":"Centre_dArts_Santa_Monica","longitude":41.3772588247,"latitude":2.1756149947,"category":"ATRACCIONES","address":"Carrer_la_Rambla,7"},
{"zone":"EL_RAVAL","rating":5.0,"name":"Gran_Teatre_del_Liceu","longitude":41.3801467744,"latitude":2.1733467293,"category":"ATRACCIONES","address":"C_la_Rambla,51"},
{"zone":"EL_RAVAL","rating":5.0,"name":"Monument_a_Cristofol_Colom","longitude":41.3759817568,"latitude":2.1760573876,"category":"ATRACCIONES","address":"Placa_del_Portal_de_la_Pau,1"},
{"zone":"EL_RAVAL","rating":5.0,"name":"Casa_Almirall","longitude":41.382389214,"latitude":2.1659292956,"category":"ATRACCIONES","address":"C_Joaquin_Costa,33"},
{"zone":"EL_RAVAL","rating":5.0,"name":"Museu_dArt_Contemporani_de_Barcelona","longitude":41.3831774156,"latitude":2.167848529,"category":"ATRACCIONES","address":"Placa_dels_Angels,1"},
{"zone":"EL_RAVAL","rating":5.0,"name":"Casa__Fabrica_Erasme_de_Gonima","longitude":41.3801377615,"latitude":2.1667324035,"category":"ATRACCIONES","address":"Carme,106"},
{"zone":"EL_RAVAL","rating":5.0,"name":"Hotel_Espana__HB000073","longitude":41.3799817744,"latitude":2.1728476147,"category":"ATRACCIONES","address":"C_Sant_Pau,9"},
{"zone":"EL_RAVAL","rating":5.0,"name":"Escola_Massana_Centre_Municipal_dArt_i_Disseny","longitude":41.3809539837,"latitude":2.1708053338,"category":"ATRACCIONES","address":"Placa_de_la_Gardunya,9"},
{"zone":"EL_RAVAL","rating":5.0,"name":"Pastisseria_Escriba_*La_Rambla","longitude":41.3815623577,"latitude":2.1727040811,"category":"ATRACCIONES","address":"C_la_Rambla,83"},
{"zone":"EL_RAVAL","rating":5.0,"name":"Bar_Musical_London_Bar","longitude":41.3781493333,"latitude":2.1731803972,"category":"ATRACCIONES","address":"C_Nou_de_la_Rambla,34"},
{"zone":"EL_RAVAL","rating":5.0,"name":"Cooperativa_Impulsem_SCCL","longitude":41.3766802589,"latitude":2.1710512409,"category":"ATRACCIONES","address":"C_Tapies,6"},
{"zone":"EL_RAVAL","rating":5.0,"name":"Placa_dels_Angels","longitude":41.3830119173,"latitude":2.1678110838,"category":"ATRACCIONES","address":"Placa_dels_Angels,1"},
{"zone":"LA_DRETA_DE_LEIXAMPLE","rating":10.0,"name":"Mercat_Concepcio","longitude":41.3955681595,"latitude":2.1690716483,"category":"ATRACCIONES","address":"Carrer_dArago,311"},
{"zone":"LA_DRETA_DE_LEIXAMPLE","rating":10.0,"name":"Casa_Calvet","longitude":41.3909680071,"latitude":2.1730144224,"category":"ATRACCIONES","address":"C_Casp,48"},
{"zone":"LA_DRETA_DE_LEIXAMPLE","rating":10.0,"name":"Casa_Domenech_i_Estapa","longitude":41.3922868147,"latitude":2.1625666402,"category":"ATRACCIONES","address":"C_Valencia,241"},
{"zone":"LA_DRETA_DE_LEIXAMPLE","rating":10.0,"name":"Casa_Batllo","longitude":41.3917352225,"latitude":2.164964072,"category":"ATRACCIONES","address":"Pg_Gracia,43"},
{"zone":"LA_DRETA_DE_LEIXAMPLE","rating":10.0,"name":"Casa_Garriga_Nogues","longitude":41.3889231001,"latitude":2.165254833,"category":"ATRACCIONES","address":"Diputacio,250"},
{"zone":"LA_DRETA_DE_LEIXAMPLE","rating":10.0,"name":"Casa_Lamadrid","longitude":41.3969469171,"latitude":2.1681807053,"category":"ATRACCIONES","address":"Girona,113"},
{"zone":"LA_DRETA_DE_LEIXAMPLE","rating":10.0,"name":"Museu","longitude":41.3915535127,"latitude":2.1637754588,"category":"ATRACCIONES","address":"Carrer_dArago,255"},
{"zone":"LA_DRETA_DE_LEIXAMPLE","rating":10.0,"name":"Espai_Gaudi:_Pis_Golfes_i_Terrat","longitude":41.39534759,"latitude":2.1620610791,"category":"ATRACCIONES","address":"Provenca,261"},
{"zone":"LA_DRETA_DE_LEIXAMPLE","rating":10.0,"name":"Jardins_del_Palau_Robert","longitude":41.3961316077,"latitude":2.1595389414,"category":"ATRACCIONES","address":"Passeig_de_Gracia,107"},
{"zone":"LA_DRETA_DE_LEIXAMPLE","rating":10.0,"name":"Casa_Fargas","longitude":41.3904080876,"latitude":2.164148991,"category":"ATRACCIONES","address":"Rbla_Catalunya,47"},
{"zone":"LA_DRETA_DE_LEIXAMPLE","rating":10.0,"name":"Cases_Josefa_Villanueva","longitude":41.3948963594,"latitude":2.1667524517,"category":"ATRACCIONES","address":"C_Roger_de_Lluria,80"},
{"zone":"LA_DRETA_DE_LEIXAMPLE","rating":10.0,"name":"Casa_CasasCarbo","longitude":41.3954810698,"latitude":2.1613599645,"category":"ATRACCIONES","address":"Pg_Gracia,96"},
{"zone":"LA_DRETA_DE_LEIXAMPLE","rating":10.0,"name":"Casa_Antoni_Costa","longitude":41.3951626315,"latitude":2.1581703907,"category":"ATRACCIONES","address":"Rbla_Catalunya,122"},
{"zone":"LA_DRETA_DE_LEIXAMPLE","rating":10.0,"name":"Farmacia_Jordi_de_Bolos","longitude":41.3916662162,"latitude":2.1624247913,"category":"ATRACCIONES","address":"Rbla_Catalunya,77"},
{"zone":"LA_DRETA_DE_LEIXAMPLE","rating":10.0,"name":"Teatre_Coliseum","longitude":41.3881969692,"latitude":2.1661793797,"category":"ATRACCIONES","address":"G.V._Corts_Catalanes,595"},
{"zone":"LA_DRETA_DE_LEIXAMPLE","rating":10.0,"name":"Jardins_del_Rector_Oliveras","longitude":41.394797524,"latitude":2.1678356445,"category":"ATRACCIONES","address":"Passatge_del_Rector_Oliveras,2"},
{"zone":"LA_DRETA_DE_LEIXAMPLE","rating":10.0,"name":"Casa_Terradas__Casa_de_les_Punxes","longitude":41.3978945539,"latitude":2.1638579682,"category":"ATRACCIONES","address":"Av_Diagonal,420"},
{"zone":"LA_DRETA_DE_LEIXAMPLE","rating":10.0,"name":"Forn_de_la_Concepcio","longitude":41.3953024422,"latitude":2.1707285813,"category":"ATRACCIONES","address":"C_Girona,74"},
{"zone":"LA_DRETA_DE_LEIXAMPLE","rating":10.0,"name":"Palau_Montaner","longitude":41.3956004406,"latitude":2.1650637423,"category":"ATRACCIONES","address":"C_Mallorca,278"},
{"zone":"LA_DRETA_DE_LEIXAMPLE","rating":10.0,"name":"Palau_Macaya","longitude":41.3998749969,"latitude":2.1694321932,"category":"ATRACCIONES","address":"Pg_Sant_Joan,108"},
{"zone":"LA_DRETA_DE_LEIXAMPLE","rating":10.0,"name":"Museu_del_Perfum__Fundacio_Planas_Giralt","longitude":41.3915074042,"latitude":2.1652454675,"category":"ATRACCIONES","address":"Pg_Gracia,39"},
{"zone":"LA_DRETA_DE_LEIXAMPLE","rating":10.0,"name":"Conservatori_Municipal_de_Musica_de_Barcelona","longitude":41.395900308,"latitude":2.1680371208,"category":"ATRACCIONES","address":"C_Bruc,110"},
{"zone":"LA_DRETA_DE_LEIXAMPLE","rating":10.0,"name":"Barcelona__Casa_Vidua_Marfa","longitude":41.3931117617,"latitude":2.1642989927,"category":"ATRACCIONES","address":"Pg_Gracia,66"},
{"zone":"LA_DRETA_DE_LEIXAMPLE","rating":10.0,"name":"Casa_Lleo_Morera","longitude":41.3913111365,"latitude":2.1654918659,"category":"ATRACCIONES","address":"Pg_Gracia,35"},
{"zone":"LA_DRETA_DE_LEIXAMPLE","rating":10.0,"name":"Associacio_dEmpresaris_i_Professionals_de_la_Rambla_Catalunya","longitude":41.3889602204,"latitude":2.1660784792,"category":"ATRACCIONES","address":"Rambla_de_Catalunya,25"},
{"zone":"LA_DRETA_DE_LEIXAMPLE","rating":10.0,"name":"Obelisc_del_Cinc_dOros","longitude":41.3965172379,"latitude":2.1595121987,"category":"ATRACCIONES","address":"Pl_Joan_Carles_I,9999"},
{"zone":"LA_DRETA_DE_LEIXAMPLE","rating":10.0,"name":"Casa_Comalat","longitude":41.3970833035,"latitude":2.1607220347,"category":"ATRACCIONES","address":"Av_Diagonal,442"},
{"zone":"LA_DRETA_DE_LEIXAMPLE","rating":10.0,"name":"Casa_Pomar","longitude":41.3956396177,"latitude":2.1702814409,"category":"ATRACCIONES","address":"C_Girona,86"},
{"zone":"LA_DRETA_DE_LEIXAMPLE","rating":10.0,"name":"Casa_Queralto","longitude":41.3930563337,"latitude":2.1610615699,"category":"ATRACCIONES","address":"Rbla_Catalunya,88"},
{"zone":"LA_DRETA_DE_LEIXAMPLE","rating":10.0,"name":"Casa_Jaume_Forn","longitude":41.3952881796,"latitude":2.1665506867,"category":"ATRACCIONES","address":"C_Valencia,285"},
{"zone":"LA_DRETA_DE_LEIXAMPLE","rating":10.0,"name":"Casa_Santurce","longitude":41.3956014176,"latitude":2.1669656154,"category":"ATRACCIONES","address":"C_Valencia,293"},
{"zone":"LA_DRETA_DE_LEIXAMPLE","rating":10.0,"name":"Casa_Vallet_i_Xiro","longitude":41.3969898904,"latitude":2.1669082311,"category":"ATRACCIONES","address":"C_Mallorca,302"},
{"zone":"LA_DRETA_DE_LEIXAMPLE","rating":10.0,"name":"Palau_del_Baro_de_Quadras","longitude":41.3967758171,"latitude":2.1613396002,"category":"ATRACCIONES","address":"Av_Diagonal,373"},
{"zone":"LA_DRETA_DE_LEIXAMPLE","rating":10.0,"name":"Casa_Llopis_Bofill","longitude":41.3976779279,"latitude":2.1694794978,"category":"ATRACCIONES","address":"Bailen,113"},
{"zone":"LA_DRETA_DE_LEIXAMPLE","rating":10.0,"name":"Casa_Llorenc_Camprubi","longitude":41.3893493847,"latitude":2.1708556704,"category":"ATRACCIONES","address":"C_Casp,22"},
{"zone":"LA_DRETA_DE_LEIXAMPLE","rating":10.0,"name":"Forn_Sarret","longitude":41.3947784162,"latitude":2.1710520736,"category":"ATRACCIONES","address":"C_Girona,73"},
{"zone":"LA_DRETA_DE_LEIXAMPLE","rating":10.0,"name":"El_passeig_de_Sant_Joan","longitude":41.4005382016,"latitude":2.1685565393,"category":"ATRACCIONES","address":"Pg_Sant_Joan,118"},
{"zone":"LA_DRETA_DE_LEIXAMPLE","rating":10.0,"name":"El_Quadrat_dOr","longitude":41.3917691123,"latitude":2.1663943674,"category":"ATRACCIONES","address":"C_Consell_de_Cent,353"},
{"zone":"LA_DRETA_DE_LEIXAMPLE","rating":10.0,"name":"Casa_Dolors_Calm","longitude":41.3908639694,"latitude":2.1640719112,"category":"ATRACCIONES","address":"Rbla_Catalunya,54"},
{"zone":"LA_DRETA_DE_LEIXAMPLE","rating":10.0,"name":"Casa_Juncosa","longitude":41.3923609536,"latitude":2.1620196661,"category":"ATRACCIONES","address":"Rbla_Catalunya,78"},
{"zone":"LA_DRETA_DE_LEIXAMPLE","rating":10.0,"name":"Cases_Pascual_i_Pons","longitude":41.3883850841,"latitude":2.1701506816,"category":"ATRACCIONES","address":"Pg_Gracia,2"},
{"zone":"LA_DRETA_DE_LEIXAMPLE","rating":10.0,"name":"Associacio_dAmics_del_Passeig_de_Gracia","longitude":41.39124614,"latitude":2.1639254997,"category":"ATRACCIONES","address":"Carrer_dArago,266"},
{"zone":"LA_DRETA_DE_LEIXAMPLE","rating":10.0,"name":"La_Placa_de_Catalunya","longitude":41.3860450751,"latitude":2.1694182154,"category":"ATRACCIONES","address":"Pl_Catalunya,2"},
{"zone":"LA_DRETA_DE_LEIXAMPLE","rating":10.0,"name":"Cases_Rocamora","longitude":41.3889189931,"latitude":2.1694907183,"category":"ATRACCIONES","address":"Pg_Gracia,6"},
{"zone":"LA_DRETA_DE_LEIXAMPLE","rating":10.0,"name":"Casa_Malagrida","longitude":41.3907079692,"latitude":2.1662331137,"category":"ATRACCIONES","address":"Pg_Gracia,27"},
{"zone":"LA_DRETA_DE_LEIXAMPLE","rating":10.0,"name":"OikoCredit_Catalunya","longitude":41.3920418529,"latitude":2.1740702335,"category":"ATRACCIONES","address":"C_Casp,43"},
{"zone":"LA_DRETA_DE_LEIXAMPLE","rating":10.0,"name":"Casa_Granell_*Girona","longitude":41.3973009911,"latitude":2.1680813061,"category":"ATRACCIONES","address":"C_Girona,122"},
{"zone":"LA_DRETA_DE_LEIXAMPLE","rating":10.0,"name":"Palau_Robert__Centre_dInformacio_de_Catalunya","longitude":41.3961322167,"latitude":2.15953198,"category":"ATRACCIONES","address":"Pg_Gracia,107"},
{"zone":"LA_DRETA_DE_LEIXAMPLE","rating":10.0,"name":"Casa_Thomas","longitude":41.3965759608,"latitude":2.165612543,"category":"ATRACCIONES","address":"Mallorca,291"},
{"zone":"LA_DRETA_DE_LEIXAMPLE","rating":10.0,"name":"El_Passeig_de_Gracia","longitude":41.3939688992,"latitude":2.1631831572,"category":"ATRACCIONES","address":"Passeig_de_Gracia,80"},
{"zone":"LA_DRETA_DE_LEIXAMPLE","rating":10.0,"name":"Museu_del_Modernisme_de_Barcelona","longitude":41.3889073964,"latitude":2.1634026814,"category":"ATRACCIONES","address":"C_Balmes,48"},
{"zone":"LA_DRETA_DE_LEIXAMPLE","rating":10.0,"name":"Colmado_Murria","longitude":41.3948010869,"latitude":2.1665110358,"category":"ATRACCIONES","address":"Roger_de_Lluria,85"},
{"zone":"LA_DRETA_DE_LEIXAMPLE","rating":10.0,"name":"Casal_Sant_Jordi","longitude":41.3894457676,"latitude":2.1713337865,"category":"ATRACCIONES","address":"Pau_Claris,81"},
{"zone":"LA_DRETA_DE_LEIXAMPLE","rating":10.0,"name":"Museu_Egipci_de_Barcelona","longitude":41.3936575652,"latitude":2.1647541606,"category":"ATRACCIONES","address":"Carrer_de_Valencia,284"},
{"zone":"LA_DRETA_DE_LEIXAMPLE","rating":10.0,"name":"Casa_Amatller","longitude":41.391612973,"latitude":2.1651128907,"category":"ATRACCIONES","address":"Pg_Gracia,41"},
{"zone":"LA_DRETA_DE_LEIXAMPLE","rating":10.0,"name":"Casa_Serra","longitude":41.3956274787,"latitude":2.1575344298,"category":"ATRACCIONES","address":"Rbla_Catalunya,126"},
{"zone":"LANTIGA_ESQUERRA_DE_LEIXAMPLE","rating":10.0,"name":"Casa_dels_Ossos","longitude":41.3946587579,"latitude":2.1529838686,"category":"ATRACCIONES","address":"Av_Diagonal,423"},
{"zone":"LANTIGA_ESQUERRA_DE_LEIXAMPLE","rating":10.0,"name":"Mercat_Ninot","longitude":41.3878571657,"latitude":2.1544122344,"category":"ATRACCIONES","address":"Carrer_de_Mallorca,133"},
{"zone":"LANTIGA_ESQUERRA_DE_LEIXAMPLE","rating":10.0,"name":"Universitat_de_Barcelona","longitude":41.3865770835,"latitude":2.1640305684,"category":"ATRACCIONES","address":"G.V._Corts_Catalanes,585"},
{"zone":"LANTIGA_ESQUERRA_DE_LEIXAMPLE","rating":10.0,"name":"Casa_Granell_*Balmes","longitude":41.3901491966,"latitude":2.1613897653,"category":"ATRACCIONES","address":"C_Balmes,65"},
{"zone":"LANTIGA_ESQUERRA_DE_LEIXAMPLE","rating":10.0,"name":"Hospital_Clinic_i_Provincial","longitude":41.3895553983,"latitude":2.1521944632,"category":"ATRACCIONES","address":"C_Villarroel,170"},
{"zone":"LANTIGA_ESQUERRA_DE_LEIXAMPLE","rating":10.0,"name":"Jardins","longitude":41.386577029,"latitude":2.1640304973,"category":"ATRACCIONES","address":"G.V._Corts_Catalanes,585"},
{"zone":"LANTIGA_ESQUERRA_DE_LEIXAMPLE","rating":10.0,"name":"Casa_Company","longitude":41.3931208007,"latitude":2.1481893231,"category":"ATRACCIONES","address":"Buenos_Aires,56"},
{"zone":"SANT_ANTONI","rating":10.0,"name":"Mercat_Sant_Antoni","longitude":41.3795682194,"latitude":2.1617431158,"category":"ATRACCIONES","address":"Carrer_del_Comte_dUrgell,1"},
{"zone":"SANT_ANTONI","rating":10.0,"name":"Edifici_de_la_Fabrica_Moritz__Espai_Gastronomic_i_Cultural","longitude":41.3825311213,"latitude":2.1634359545,"category":"ATRACCIONES","address":"Rda_Sant_Antoni,39"},
{"zone":"SANT_ANTONI","rating":10.0,"name":"El_Paral*lel","longitude":41.3752209851,"latitude":2.1558593297,"category":"ATRACCIONES","address":"Av_Paral*lel,170"},
{"zone":"SANT_ANTONI","rating":10.0,"name":"Cases_Francesc_Farreras","longitude":41.3825550321,"latitude":2.1595517676,"category":"ATRACCIONES","address":"G.V._Corts_Catalanes,536"},
{"zone":"SANT_ANTONI","rating":10.0,"name":"Sant_Antoni","longitude":41.3797514736,"latitude":2.16151042,"category":"ATRACCIONES","address":"C_Comte_dUrgell,7"},
{"zone":"SANT_ANTONI","rating":10.0,"name":"Ronda_de_Sant_Antoni","longitude":41.3791808097,"latitude":2.1629662197,"category":"ATRACCIONES","address":"Ronda_de_Sant_Antoni,1"},
{"zone":"LA_NOVA_ESQUERRA_DE_LEIXAMPLE","rating":10.0,"name":"Centre_Civic_Casa_Golferichs","longitude":41.3808491471,"latitude":2.1564074948,"category":"ATRACCIONES","address":"Gran_Via_de_les_Corts_Catalanes,491"},
{"zone":"LA_NOVA_ESQUERRA_DE_LEIXAMPLE","rating":10.0,"name":"Casa_Faiol__Casa_de_la_Papallona","longitude":41.376636976,"latitude":2.1502989535,"category":"ATRACCIONES","address":"Llanca,20"},
{"zone":"LA_NOVA_ESQUERRA_DE_LEIXAMPLE","rating":10.0,"name":"Edifici_de_La_Model","longitude":41.3834665372,"latitude":2.1453845998,"category":"ATRACCIONES","address":"Carrer_dEntenca,155"},
{"zone":"LA_NOVA_ESQUERRA_DE_LEIXAMPLE","rating":10.0,"name":"Parc_de_Joan_Miro","longitude":41.378838141,"latitude":2.1473335959,"category":"ATRACCIONES","address":"Carrer_dArago,2"},
{"zone":"LA_NOVA_ESQUERRA_DE_LEIXAMPLE","rating":10.0,"name":"Centre_Cultural_Teresa_Pamies","longitude":41.3868953515,"latitude":2.1520497124,"category":"ATRACCIONES","address":"C_Comte_dUrgell,145"},
{"zone":"LA_NOVA_ESQUERRA_DE_LEIXAMPLE","rating":10.0,"name":"Casa_de_la_Lactancia","longitude":41.3801315545,"latitude":2.1554549357,"category":"ATRACCIONES","address":"G.V._Corts_Catalanes,475"},
{"zone":"LA_NOVA_ESQUERRA_DE_LEIXAMPLE","rating":10.0,"name":"Centre_Comercial_Arenas_de_Barcelona","longitude":41.3760383384,"latitude":2.149975296,"category":"ATRACCIONES","address":"G.V._Corts_Catalanes,373"},
{"zone":"LA_NOVA_ESQUERRA_DE_LEIXAMPLE","rating":10.0,"name":"Oasi_MAC","longitude":41.3818824074,"latitude":2.1536468993,"category":"ATRACCIONES","address":"Carrer_del_Consell_de_Cent,140"},
{"zone":"LA_NOVA_ESQUERRA_DE_LEIXAMPLE","rating":10.0,"name":"Antiga_Seu_Editorial_Gustavo_Gili","longitude":41.3861065595,"latitude":2.1475656629,"category":"ATRACCIONES","address":"Rossello,87"},
{"zone":"EL_POBLENOU","rating":9.0,"name":"Cementiri_Poblenou","longitude":41.3945932963,"latitude":2.2011568118,"category":"ATRACCIONES","address":"Avinguda_dIcaria,204"},
{"zone":"EL_POBLENOU","rating":9.0,"name":"Hotel_Melia_Barcelona_Sky__HB004358","longitude":41.4062881902,"latitude":2.2006347978,"category":"ATRACCIONES","address":"C_Pere_IV,272"},
{"zone":"EL_POBLENOU","rating":9.0,"name":"Platja_del_Bogatell","longitude":41.3946026782,"latitude":2.2067544979,"category":"ATRACCIONES","address":"Pg_Maritim_del_Bogatell,80"},
{"zone":"EL_POBLENOU","rating":9.0,"name":"Centre_Civic_Can_Felipa","longitude":41.4036797586,"latitude":2.2005097122,"category":"ATRACCIONES","address":"Placa_de_Josep_Maria_Huertas_Claveria,1"},
{"zone":"EL_POBLENOU","rating":9.0,"name":"El_Poblenou","longitude":41.402274445,"latitude":2.1990636883,"category":"ATRACCIONES","address":"C_Pallars,221"},
{"zone":"EL_POBLENOU","rating":9.0,"name":"Espai_Subirachs__Poblenou","longitude":41.4041526905,"latitude":2.1998939557,"category":"ATRACCIONES","address":"Carrer_de_Batista,6"},
{"zone":"EL_POBLENOU","rating":9.0,"name":"Eix_Comercial_del_Poblenou","longitude":41.4026196691,"latitude":2.1998995901,"category":"ATRACCIONES","address":"C_Pallars,224"},
{"zone":"EL_POBLENOU","rating":9.0,"name":"Mercat_Poblenou__Unio","longitude":41.4010217485,"latitude":2.2054291964,"category":"ATRACCIONES","address":"Pl_Unio,25"},
{"zone":"EL_POBLENOU","rating":9.0,"name":"BAU_Centre_Universitari_dArts_i_Disseny_de_Barcelona","longitude":41.3977263557,"latitude":2.1956414495,"category":"ATRACCIONES","address":"C_Pujades,118"},
{"zone":"EL_POBLENOU","rating":9.0,"name":"Memorial_en_Record_de_les_Victimes_de_Transit","longitude":41.3946026782,"latitude":2.2067544979,"category":"ATRACCIONES","address":"Passeig_Maritim_del_Bogatell,82"},
{"zone":"EL_POBLENOU","rating":9.0,"name":"Parc_del_Poblenou","longitude":41.3972797182,"latitude":2.2074706042,"category":"ATRACCIONES","address":"Av_Litoral,59"},
{"zone":"EL_POBLENOU","rating":9.0,"name":"LHort_del_Canem","longitude":41.3991395847,"latitude":2.2007833167,"category":"ATRACCIONES","address":"Carrer_de_la_Llacuna,31"},
{"zone":"EL_CAMP_DE_LARPA_DEL_CLOT","rating":9.0,"name":"Associacio_dEmprenedors_del_ClotEix_Clot","longitude":41.4164386981,"latitude":2.1814929274,"category":"ATRACCIONES","address":"Carrer_de_Sant_Antoni_Maria_Claret,358"},
{"zone":"EL_CAMP_DE_LARPA_DEL_CLOT","rating":9.0,"name":"Educa_+","longitude":41.4125239889,"latitude":2.1795703647,"category":"ATRACCIONES","address":"C_Sant_Quinti,12"},
{"zone":"EL_FORT_PIENC","rating":10.0,"name":"Mercat_Encants_Barcelona__Fira_de_Bellcaire","longitude":41.4010635488,"latitude":2.185669246,"category":"ATRACCIONES","address":"Carrer_de_los_Castillejos,158"},
{"zone":"EL_FORT_PIENC","rating":10.0,"name":"Estacio_dAutobusos_Barcelona_Nord","longitude":41.3943257193,"latitude":2.1823381547,"category":"ATRACCIONES","address":"C_Ali_Bei,80"},
{"zone":"EL_FORT_PIENC","rating":10.0,"name":"LAuditori_de_Barcelona","longitude":41.3987724249,"latitude":2.1851591281,"category":"ATRACCIONES","address":"Carrer_de_Lepant,150"},
{"zone":"EL_FORT_PIENC","rating":10.0,"name":"Seu_de_lAntiga_Hidroelectrica_de_Catalunya","longitude":41.3919261831,"latitude":2.1828635885,"category":"ATRACCIONES","address":"C_Almogavers,11"},
{"zone":"EL_FORT_PIENC","rating":10.0,"name":"Teatre_Nacional_de_Catalunya","longitude":41.3997176396,"latitude":2.1861052567,"category":"ATRACCIONES","address":"Placa_de_les_Arts,1"},
{"zone":"EL_FORT_PIENC","rating":10.0,"name":"Casa_Estape","longitude":41.3919270967,"latitude":2.1799660951,"category":"ATRACCIONES","address":"Pg_Sant_Joan,6"},
{"zone":"EL_FORT_PIENC","rating":10.0,"name":"Escola_Superior_de_Musica_de_Catalunya","longitude":41.3987724249,"latitude":2.1851591281,"category":"ATRACCIONES","address":"C_Padilla,155"},
{"zone":"EL_FORT_PIENC","rating":10.0,"name":"Vestibul_Metro_L1_Arc_de_Triomf","longitude":41.3917589639,"latitude":2.1804974228,"category":"ATRACCIONES","address":"Avinguda_de_Vilanova,1"},
{"zone":"EL_PARC_I_LA_LLACUNA_DEL_POBLENOU","rating":9.0,"name":"Torre_Glories","longitude":41.4034762932,"latitude":2.1898150096,"category":"ATRACCIONES","address":"Av_Diagonal,209"},
{"zone":"EL_PARC_I_LA_LLACUNA_DEL_POBLENOU","rating":9.0,"name":"Centre_Comercial_Westfield_Glories","longitude":41.4049757486,"latitude":2.1925213553,"category":"ATRACCIONES","address":"Av_Diagonal,208"},
{"zone":"EL_PARC_I_LA_LLACUNA_DEL_POBLENOU","rating":9.0,"name":"Fundacio_Barcelona_Media__Centre_dInnovacio","longitude":41.4044250802,"latitude":2.1936694239,"category":"ATRACCIONES","address":"Av_Diagonal,177"},
{"zone":"EL_PARC_I_LA_LLACUNA_DEL_POBLENOU","rating":9.0,"name":"La_placa_de_les_Glories_Catalanes","longitude":41.4025918998,"latitude":2.1873319528,"category":"ATRACCIONES","address":"Pl_Glories_Catalanes,36"},
{"zone":"EL_PARC_I_LA_LLACUNA_DEL_POBLENOU","rating":9.0,"name":"Edifici_MediaTIC","longitude":41.4026799327,"latitude":2.1944666096,"category":"ATRACCIONES","address":"Carrer_de_Roc_Boronat,117"},
{"zone":"EL_PARC_I_LA_LLACUNA_DEL_POBLENOU","rating":9.0,"name":"El_Campus_de_Comunicacio","longitude":41.4036755436,"latitude":2.1935349162,"category":"ATRACCIONES","address":"Carrer_de_Roc_Boronat,134"},
{"zone":"EL_PARC_I_LA_LLACUNA_DEL_POBLENOU","rating":9.0,"name":"Disseny_Hub_Barcelona","longitude":41.4026011117,"latitude":2.1880498461,"category":"ATRACCIONES","address":"Pl_Glories_Catalanes,37"},
{"zone":"EL_PARC_I_LA_LLACUNA_DEL_POBLENOU","rating":9.0,"name":"Ca_lAranyo","longitude":41.4041874561,"latitude":2.192916651,"category":"ATRACCIONES","address":"C_Roc_Boronat,150"},
{"zone":"EL_PARC_I_LA_LLACUNA_DEL_POBLENOU","rating":9.0,"name":"Museu_de_Pintura_Contemporania_Can_Framis","longitude":41.4029442027,"latitude":2.1949651108,"category":"ATRACCIONES","address":"Carrer_de_Roc_Boronat,116"},
{"zone":"EL_PARC_I_LA_LLACUNA_DEL_POBLENOU","rating":9.0,"name":"El_22@","longitude":41.4019678255,"latitude":2.1954426698,"category":"ATRACCIONES","address":"C_Roc_Boronat,113"},
{"zone":"EL_PARC_I_LA_LLACUNA_DEL_POBLENOU","rating":9.0,"name":"IL3_Institut_de_Formacio_Continua__Universitat_de_Barcelona","longitude":41.4027779495,"latitude":2.1921490045,"category":"ATRACCIONES","address":"C_Ciutat_de_Granada,131"},
{"zone":"VALLCARCA_I_ELS_PENITENTS","rating":7.0,"name":"Casa_Marsans__Alberg_Mare_de_Deu_de_Montserrat__AJ000084","longitude":41.4161894968,"latitude":2.1468663071,"category":"ATRACCIONES","address":"Pg_Mare_de_Deu_del_Coll,41"},
{"zone":"VALLCARCA_I_ELS_PENITENTS","rating":7.0,"name":"Casa_Comas_d_Argemir","longitude":41.4107909302,"latitude":2.1458653032,"category":"ATRACCIONES","address":"Av_Republica_Argentina,92"},
{"zone":"VALLCARCA_I_ELS_PENITENTS","rating":7.0,"name":"Parroquia_de_la_Verge_de_Gracia_i_Sant_Josep","longitude":41.4065945274,"latitude":2.1489419134,"category":"ATRACCIONES","address":"Pl_Lesseps,25"},
{"zone":"VALLCARCA_I_ELS_PENITENTS","rating":7.0,"name":"Biblioteca_Jaume_Fuster","longitude":41.4074909694,"latitude":2.1497752026,"category":"ATRACCIONES","address":"Placa_de_Lesseps,20"},
{"zone":"VALLCARCA_I_ELS_PENITENTS","rating":7.0,"name":"Casa_Barange","longitude":41.4133990239,"latitude":2.1444601068,"category":"ATRACCIONES","address":"Pl_Mons,4"},
{"zone":"VALLCARCA_I_ELS_PENITENTS","rating":7.0,"name":"Casa_Rosa_Alemany","longitude":41.407377311,"latitude":2.1486334573,"category":"ATRACCIONES","address":"Av_Republica_Argentina,6"},
{"zone":"VALLCARCA_I_ELS_PENITENTS","rating":7.0,"name":"Residencia_Assistencial_per_a_Gent_Gran_Refugi_dObreres","longitude":41.4083029731,"latitude":2.148211214,"category":"ATRACCIONES","address":"Av_Republica_Argentina,16"},
{"zone":"VALLCARCA_I_ELS_PENITENTS","rating":7.0,"name":"Edifici_Modernista_Avinguda_Republica_Argentina_28","longitude":41.4084916768,"latitude":2.147416989,"category":"ATRACCIONES","address":"Av_Republica_Argentina,28"},
{"zone":"VALLCARCA_I_ELS_PENITENTS","rating":7.0,"name":"Casa_Eudald_Obradors","longitude":41.4105792332,"latitude":2.1458839653,"category":"ATRACCIONES","address":"Av_Republica_Argentina,90"},
{"zone":"VALLCARCA_I_ELS_PENITENTS","rating":7.0,"name":"Villa_Esperanza","longitude":41.4136324695,"latitude":2.146376241,"category":"ATRACCIONES","address":"Ptge_Isabel,8"},
{"zone":"VALLCARCA_I_ELS_PENITENTS","rating":7.0,"name":"Viaducte_de_Vallcarca","longitude":41.4118180004,"latitude":2.1432697424,"category":"ATRACCIONES","address":"C_Gomis,2"},
{"zone":"VALLCARCA_I_ELS_PENITENTS","rating":7.0,"name":"Casa_Cortina","longitude":41.4102220482,"latitude":2.1460627049,"category":"ATRACCIONES","address":"Av_Republica_Argentina,82"},
{"zone":"VALLCARCA_I_ELS_PENITENTS","rating":7.0,"name":"Escola_la_Farigola_de_Vallcarca","longitude":41.4138319736,"latitude":2.1466809686,"category":"ATRACCIONES","address":"C_Sant_Camil,31"},
{"zone":"VALLCARCA_I_ELS_PENITENTS","rating":7.0,"name":"Parc_Sanitari_Pere_Virgili","longitude":41.4149550822,"latitude":2.1402659066,"category":"ATRACCIONES","address":"C_Esteve_Terradas,30"},
{"zone":"LES_CORTS","rating":4.0,"name":"Mercat_Les_Corts","longitude":41.3840780606,"latitude":2.1298048647,"category":"ATRACCIONES","address":"Travessera_de_les_Corts,215"},
{"zone":"LES_CORTS","rating":4.0,"name":"Masia_Can_Roses","longitude":41.3882749682,"latitude":2.1348326553,"category":"ATRACCIONES","address":"C_Deu_i_Mata,49"},
{"zone":"LES_CORTS","rating":4.0,"name":"La_Gran_Via_de_Carles_III","longitude":41.3835976115,"latitude":2.1280566741,"category":"ATRACCIONES","address":"G.V._Carles_III,60"},
{"zone":"LES_CORTS","rating":4.0,"name":"Centre_Civic_Can_Deu","longitude":41.3867940077,"latitude":2.1325216465,"category":"ATRACCIONES","address":"Placa_de_la_Concordia,13"},
{"zone":"LES_CORTS","rating":4.0,"name":"Els_Edificis_Trade","longitude":41.3861752162,"latitude":2.1279530224,"category":"ATRACCIONES","address":"G.V._Carles_III,84"},
{"zone":"LES_CORTS","rating":4.0,"name":"Centre_Comercial_LIlla_Diagonal","longitude":41.3897455997,"latitude":2.1353959606,"category":"ATRACCIONES","address":"Av_Diagonal,557"},
{"zone":"LES_CORTS","rating":4.0,"name":"Ateneu_de_Fabricacio_Digital_de_Les_Corts","longitude":41.3835542422,"latitude":2.1355597687,"category":"ATRACCIONES","address":"Carrer_dEvarist_Arnus,59"},
{"zone":"LES_CORTS","rating":4.0,"name":"Cristalleries_Planell","longitude":41.3874362431,"latitude":2.1319039178,"category":"ATRACCIONES","address":"C_Doctor_Ibanez,38"},
{"zone":"LES_CORTS","rating":4.0,"name":"El_passatge_de_Tubella","longitude":41.3837238332,"latitude":2.1359277551,"category":"ATRACCIONES","address":"Ptge_Tubella,1"},
{"zone":"LES_CORTS","rating":4.0,"name":"Jardins_de_Magali","longitude":41.3849133653,"latitude":2.1335326462,"category":"ATRACCIONES","address":"C_Vallespir,194"},
{"zone":"LES_CORTS","rating":4.0,"name":"Colonia_Castells","longitude":41.3875484703,"latitude":2.1392455922,"category":"ATRACCIONES","address":"C_Castells,2"},
{"zone":"LES_CORTS","rating":4.0,"name":"La_placa_de_Comas","longitude":41.3856440682,"latitude":2.1297722514,"category":"ATRACCIONES","address":"Pl_Comas,18"},
{"zone":"LES_CORTS","rating":4.0,"name":"Roca_Barcelona_Gallery","longitude":41.3866457024,"latitude":2.1292306579,"category":"ATRACCIONES","address":"C_Joan_Guell,211"},
{"zone":"LES_CORTS","rating":4.0,"name":"Centre_Civic_Tomasa_Cuevas__Les_Corts","longitude":41.3848186813,"latitude":2.128341679,"category":"ATRACCIONES","address":"Carrer_de_Dolors_Masferrer_i_Bosch,33"},
{"zone":"LES_CORTS","rating":4.0,"name":"Memorial_de_les_Dones_Represaliades_a_la_Preso_de_Dones_de_les_Corts","longitude":41.3871532399,"latitude":2.1292397738,"category":"ATRACCIONES","address":"Carrer_dEuropa,13"},
{"zone":"LES_CORTS","rating":4.0,"name":"Les_Corts","longitude":41.3866905153,"latitude":2.1319463337,"category":"ATRACCIONES","address":"Pl_Concordia,2"},
{"zone":"LES_CORTS","rating":4.0,"name":"El_camp_de_la_Creu","longitude":41.388763524,"latitude":2.1401802819,"category":"ATRACCIONES","address":"Pl_Carme,1"},
{"zone":"LES_CORTS","rating":4.0,"name":"El_Jardi_Vertical","longitude":41.385127966,"latitude":2.1417446236,"category":"ATRACCIONES","address":"C_Berlin,107"},
{"zone":"LES_CORTS","rating":4.0,"name":"Parroquia_de_Santa_Maria_del_Remei","longitude":41.3868925224,"latitude":2.1320988915,"category":"ATRACCIONES","address":"Pl_Concordia,1"},
{"zone":"LES_CORTS","rating":4.0,"name":"Biblioteca_Montserrat_Abello","longitude":41.3837313303,"latitude":2.1353058454,"category":"ATRACCIONES","address":"Carrer_dels_Comtes_de_Belllloc,192"},
{"zone":"LES_CORTS","rating":4.0,"name":"Edifici_Talaia_Barcelona","longitude":41.3908406598,"latitude":2.1394911074,"category":"ATRACCIONES","address":"Av_Sarria,71"},
{"zone":"EL_CLOT","rating":9.0,"name":"El_Clot","longitude":41.4078457828,"latitude":2.1884691932,"category":"ATRACCIONES","address":"Pl_Font_i_Sague,2"},
{"zone":"EL_CLOT","rating":9.0,"name":"Mercat_Clot","longitude":41.4076169424,"latitude":2.1886443724,"category":"ATRACCIONES","address":"Pl_Mercat,26"},
{"zone":"EL_CLOT","rating":9.0,"name":"Parc_del_Clot","longitude":41.40847228,"latitude":2.1900153666,"category":"ATRACCIONES","address":"Escultors_Claperos,55"},
{"zone":"EL_CLOT","rating":9.0,"name":"Centre_Cultural_La_Farinera_del_Clot","longitude":41.4048789758,"latitude":2.188404767,"category":"ATRACCIONES","address":"Gran_Via_de_les_Corts_Catalanes,837"},
{"zone":"PEDRALBES","rating":4.0,"name":"Casa_Bartomeu","longitude":41.3963112534,"latitude":2.1072570259,"category":"ATRACCIONES","address":"C_Rabida,5"},
{"zone":"PEDRALBES","rating":4.0,"name":"Casa_Hurtado","longitude":41.3924214917,"latitude":2.1163254702,"category":"ATRACCIONES","address":"Av_Pedralbes,46"},
{"zone":"PEDRALBES","rating":4.0,"name":"Antic_Monolit_Dedicat_a_la_Legion_Condor","longitude":41.3886307516,"latitude":2.127086735,"category":"ATRACCIONES","address":"Pl_Reina_Maria_Cristina,1"},
{"zone":"PEDRALBES","rating":4.0,"name":"Centre_Educatiu_Thau","longitude":41.3876400551,"latitude":2.1052887679,"category":"ATRACCIONES","address":"Av_Esplugues,49"},
{"zone":"PEDRALBES","rating":4.0,"name":"Col*legi_de_Censors_Jurats_de_Comptes_de_Catalunya","longitude":41.3904102034,"latitude":2.1127907982,"category":"ATRACCIONES","address":"C_Sor_Eulalia_dAnzizu,41"},
{"zone":"PEDRALBES","rating":4.0,"name":"Parc_de_Cervantes","longitude":41.3845685287,"latitude":2.1094394046,"category":"ATRACCIONES","address":"Av_Diagonal,706"},
{"zone":"PEDRALBES","rating":4.0,"name":"Quarter_Bruc","longitude":41.38730795,"latitude":2.110666688,"category":"ATRACCIONES","address":"Av_Exercit,1"},
{"zone":"PEDRALBES","rating":4.0,"name":"Jardins_del_Palau_de_Pedralbes","longitude":41.3865493743,"latitude":2.1184352989,"category":"ATRACCIONES","address":"Av_Diagonal,686"},
{"zone":"PEDRALBES","rating":4.0,"name":"Escola_Superior_dAdministracio_i_Direccio_dEmpreses__URL","longitude":41.3937413748,"latitude":2.1145004173,"category":"ATRACCIONES","address":"Av_Pedralbes,60"},
{"zone":"PEDRALBES","rating":4.0,"name":"El_Campus_Nord_Ciutat_Universitaria","longitude":41.3871675361,"latitude":2.1128243954,"category":"ATRACCIONES","address":"C_Jordi_Girona,4"},
{"zone":"PEDRALBES","rating":4.0,"name":"El_cami_de_Finestrelles_i_el_mirador","longitude":41.3871664532,"latitude":2.1013080276,"category":"ATRACCIONES","address":"Cami_Finestrelles,2"},
{"zone":"PEDRALBES","rating":4.0,"name":"El_Conjunt_Residencial_de_Les_Escales_Park","longitude":41.3920478359,"latitude":2.1153886542,"category":"ATRACCIONES","address":"C_Sor_Eulalia_dAnzizu,38"},
{"zone":"PEDRALBES","rating":4.0,"name":"Pavellons_dEntrada_de_lAntiga_Finca_Guell","longitude":41.388490588,"latitude":2.1208592991,"category":"ATRACCIONES","address":"Avinguda_de_Pedralbes,7"},
{"zone":"PEDRALBES","rating":4.0,"name":"El_barri_de_la_Merce","longitude":41.3889368986,"latitude":2.1055266225,"category":"ATRACCIONES","address":"C_Torrent_de_les_Roses,1"},
{"zone":"PEDRALBES","rating":4.0,"name":"La_Torre_Blanca","longitude":41.3894674979,"latitude":2.118762606,"category":"ATRACCIONES","address":"Pg_Til*lers,1"},
{"zone":"PEDRALBES","rating":4.0,"name":"Museu_Reial_Monestir_de_Santa_Maria_de_Pedralbes","longitude":41.3956051658,"latitude":2.1120750845,"category":"ATRACCIONES","address":"Baixada_del_Monestir,9"},
{"zone":"PEDRALBES","rating":4.0,"name":"Reial_Club_de_Tennis_Barcelona__1899","longitude":41.3936904798,"latitude":2.1183319143,"category":"ATRACCIONES","address":"C_Bosch_i_Gimpera,5"},
{"zone":"PEDRALBES","rating":4.0,"name":"Casa_Carreras","longitude":41.3940484333,"latitude":2.1089871009,"category":"ATRACCIONES","address":"Av_Pearson,14"},
{"zone":"PEDRALBES","rating":4.0,"name":"La_Vil*la_Helius_(Casa_Grane)","longitude":41.395462855,"latitude":2.1075413184,"category":"ATRACCIONES","address":"C_Panama,13"},
{"zone":"PEDRALBES","rating":4.0,"name":"La_zone_Universitaria","longitude":41.3861460221,"latitude":2.1167603559,"category":"ATRACCIONES","address":"C_John_M_Keynes,4"},
{"zone":"PEDRALBES","rating":4.0,"name":"Jardins_Creu_de_Pedralbes","longitude":41.3943318528,"latitude":2.1115767348,"category":"ATRACCIONES","address":"Av_Pearson,2"},
{"zone":"PEDRALBES","rating":4.0,"name":"Facultat_de_Dret__UB","longitude":41.3872397187,"latitude":2.12109725,"category":"ATRACCIONES","address":"Av_Diagonal,684"},
{"zone":"PEDRALBES","rating":4.0,"name":"Torre_de_Santa_Caterina","longitude":41.3949873477,"latitude":2.105927743,"category":"ATRACCIONES","address":"C_Panama,21"},
{"zone":"PEDRALBES","rating":4.0,"name":"Parroquia_de_Maria_Reina","longitude":41.3926959956,"latitude":2.1114861304,"category":"ATRACCIONES","address":"Av_Esplugues,103"},
{"zone":"PEDRALBES","rating":4.0,"name":"Universitat_Politecnica_de_Catalunya","longitude":41.3889419871,"latitude":2.1165378399,"category":"ATRACCIONES","address":"C_Jordi_Girona,31"},
{"zone":"PEDRALBES","rating":4.0,"name":"Palau_Reial_de_Pedralbes","longitude":41.3865493743,"latitude":2.1184352989,"category":"ATRACCIONES","address":"Av_Diagonal,686"},
{"zone":"PEDRALBES","rating":4.0,"name":"Bibiblioteca_Rector_Gabriel_Ferrate","longitude":41.387901519,"latitude":2.1146704335,"category":"ATRACCIONES","address":"Jordi_Girona,1"},
{"zone":"PEDRALBES","rating":4.0,"name":"Espai_de_Memoria_de_les_Catorze_Roses","longitude":41.3845685287,"latitude":2.1094394046,"category":"ATRACCIONES","address":"Av_Diagonal,706"},
{"zone":"VILAPICINA_I_LA_TORRE_LLOBETA","rating":1.0,"name":"Centre_Civic_Torre_Llobeta","longitude":41.4269315097,"latitude":2.1739662506,"category":"ATRACCIONES","address":"Carrer_de_Santa_Fe,2"},
{"zone":"VILAPICINA_I_LA_TORRE_LLOBETA","rating":1.0,"name":"El_passatge_de_lEsperanca","longitude":41.4290968721,"latitude":2.1769424052,"category":"ATRACCIONES","address":"Ptge_Esperanca,5"},
{"zone":"LA_SAGRERA","rating":2.0,"name":"Parc_de_la_Pegaso","longitude":41.4268880485,"latitude":2.1907392864,"category":"ATRACCIONES","address":"C_Sagrera,179"},
{"zone":"LA_SAGRERA","rating":2.0,"name":"Cooperativa_La_Flor_de_Maig__sucursal_num._7","longitude":41.4241145115,"latitude":2.1903109079,"category":"ATRACCIONES","address":"C_Marti_Molins,10"},
{"zone":"LA_SAGRERA","rating":2.0,"name":"Pilar_dAigua_de_la_Sagrera","longitude":41.4220738556,"latitude":2.1908858332,"category":"ATRACCIONES","address":"C_Ciutat_dElx,31"},
{"zone":"LA_SAGRERA","rating":2.0,"name":"Fabrica_de_Creacio_Nau_Ivanow","longitude":41.4199791609,"latitude":2.1899651965,"category":"ATRACCIONES","address":"C_Hondures,28"},
{"zone":"LA_SAGRERA","rating":2.0,"name":"Refugi_Antiaeri_de_la_Sagrera","longitude":41.4237364088,"latitude":2.1919519616,"category":"ATRACCIONES","address":"C_Berenguer_de_Palou,64"},
{"zone":"LA_SAGRERA","rating":2.0,"name":"Placa_Masadas","longitude":41.4247861044,"latitude":2.1901770035,"category":"ATRACCIONES","address":"Pl_Masadas,1"},
{"zone":"LA_SAGRERA","rating":2.0,"name":"LEstacio_de_La_Sagrera","longitude":41.4219240735,"latitude":2.1873780572,"category":"ATRACCIONES","address":"C_Hondures,76"},
{"zone":"LA_SAGRERA","rating":2.0,"name":"Centre_Educatiu_Monlau","longitude":41.4229975291,"latitude":2.1906007422,"category":"ATRACCIONES","address":"C_Monlau,2"},
{"zone":"LA_SAGRERA","rating":2.0,"name":"La_Sagrera","longitude":41.4205091272,"latitude":2.190043118,"category":"ATRACCIONES","address":"C_Ciutat_dElx,8"},
{"zone":"LA_SAGRERA","rating":2.0,"name":"Torre_del_Fang","longitude":41.416500547,"latitude":2.1919480476,"category":"ATRACCIONES","address":"Clot,228"},
{"zone":"LA_SAGRERA","rating":2.0,"name":"Pont_de_Calatrava_(Bac_de_Roda__Felip_II)","longitude":41.4161663396,"latitude":2.1924102552,"category":"ATRACCIONES","address":"Carrer_de_Felip_II,2"},
{"zone":"SANT_ANDREU","rating":2.0,"name":"Centre_Estudis_Ignasi_Iglesias","longitude":41.4335696388,"latitude":2.1881302399,"category":"ATRACCIONES","address":"Carrer_dIgnasi_Iglesias,33"},
{"zone":"SANT_ANDREU","rating":2.0,"name":"Antiga_Estacio_de_Rodalies_Sant_Andreu_Comtal_de_RENFE","longitude":41.4359433527,"latitude":2.1924895677,"category":"ATRACCIONES","address":"Placa_de_lEstacio,1"},
{"zone":"SANT_ANDREU","rating":2.0,"name":"Parroquia_de_Sant_Pacia","longitude":41.4316681363,"latitude":2.1875874022,"category":"ATRACCIONES","address":"C_Monges,27"},
{"zone":"SANT_ANDREU","rating":2.0,"name":"Antiga_Biblioteca_Publica_de_Sant_Andreu_de_Palomar","longitude":41.4367997505,"latitude":2.1905489389,"category":"ATRACCIONES","address":"C_Santa_Marta,12"},
{"zone":"SANT_ANDREU","rating":2.0,"name":"LAqueducte_Palombarum","longitude":41.4382165545,"latitude":2.1931879252,"category":"ATRACCIONES","address":"C_Fernando_Pessoa,1"},
{"zone":"SANT_ANDREU","rating":2.0,"name":"Cansaladeria_Puig","longitude":41.4319653776,"latitude":2.1892316531,"category":"ATRACCIONES","address":"C_Gran_de_Sant_Andreu,147"},
{"zone":"SANT_ANDREU","rating":2.0,"name":"Seu_del_Districte_de_Sant_Andreu","longitude":41.4360280511,"latitude":2.1906073383,"category":"ATRACCIONES","address":"Placa_dOrfila,1"},
{"zone":"SANT_ANDREU","rating":2.0,"name":"Premsa_de_Vi_de_Can_Xandri","longitude":41.4382258565,"latitude":2.185347824,"category":"ATRACCIONES","address":"Placa_den_Xandri,3"},
{"zone":"SANT_ANDREU","rating":2.0,"name":"Can_Mazantini","longitude":41.4331425769,"latitude":2.1846500856,"category":"ATRACCIONES","address":"C_Coroleu,73"},
{"zone":"SANT_ANDREU","rating":2.0,"name":"Sant_Andreu","longitude":41.435269021,"latitude":2.1900444725,"category":"ATRACCIONES","address":"Pl_Comerc,3"},
{"zone":"SANT_ANDREU","rating":2.0,"name":"La_Placa_del_Mercadal","longitude":41.4349880841,"latitude":2.1887179761,"category":"ATRACCIONES","address":"Pl_Mercadal,35"},
{"zone":"SANT_ANDREU","rating":2.0,"name":"Avenc_Obrer_Catala_de_Sant_Andreu","longitude":41.4362444686,"latitude":2.1909591589,"category":"ATRACCIONES","address":"Pl_Orfila,3"},
{"zone":"SANT_ANDREU","rating":2.0,"name":"Carrer_Pons_i_Gallarza","longitude":41.4355421004,"latitude":2.1868695224,"category":"ATRACCIONES","address":"C_Basconia,45"},
{"zone":"SANT_ANDREU","rating":2.0,"name":"Carrer_de_les_Monges","longitude":41.4306896561,"latitude":2.1879431063,"category":"ATRACCIONES","address":"C_Monges,10"},
{"zone":"SANT_ANDREU","rating":2.0,"name":"Carrer_Gran_de_Sant_Andreu","longitude":41.4361254326,"latitude":2.1898796476,"category":"ATRACCIONES","address":"C_Malats,26"},
{"zone":"SANT_ANDREU","rating":2.0,"name":"Seu_de_la_Seccio_10_de_les_Patrulles_de_Control_(Guerra_Civil)","longitude":41.4291125232,"latitude":2.1903638448,"category":"ATRACCIONES","address":"C_Gran_de_Sant_Andreu,52"},
{"zone":"SANT_ANDREU","rating":2.0,"name":"Cooperativa_La_Confianca_Andreuenca","longitude":41.4355556463,"latitude":2.1853136244,"category":"ATRACCIONES","address":"C_Pons_i_Gallarza,103"},
{"zone":"SANT_ANDREU","rating":2.0,"name":"Hotel_dEntitats_de_Can_Guardiola","longitude":41.4299594841,"latitude":2.1885533824,"category":"ATRACCIONES","address":"Cuba,2"},
{"zone":"SANT_ANDREU","rating":2.0,"name":"Farmacia_Reixachde_Pablo","longitude":41.4356182955,"latitude":2.1896359516,"category":"ATRACCIONES","address":"Carrer_Gran_de_Sant_Andreu,263"},
{"zone":"SANT_ANDREU","rating":2.0,"name":"Associacio_Eix_Comercial_de_Sant_Andreu","longitude":41.4341854692,"latitude":2.1880354435,"category":"ATRACCIONES","address":"C_Ruben_Dario,37"},
{"zone":"SANT_ANDREU","rating":2.0,"name":"La_Previsio_Obrera","longitude":41.435363669,"latitude":2.1908493755,"category":"ATRACCIONES","address":"C_Doctor_Balari_i_Jovany,13"},
{"zone":"SANT_ANDREU","rating":2.0,"name":"Carrer_Coroleu","longitude":41.4329829834,"latitude":2.1871905435,"category":"ATRACCIONES","address":"C_Coroleu,42"},
{"zone":"SANT_ANDREU","rating":2.0,"name":"Carrer_Grau","longitude":41.4387916405,"latitude":2.1876693525,"category":"ATRACCIONES","address":"C_Grau,47"},
{"zone":"SANT_ANDREU","rating":2.0,"name":"Menjadors_populars_del_carrer_Gran_Sant_Andreu_(Guerra_Civil)","longitude":41.4327222721,"latitude":2.1893973971,"category":"ATRACCIONES","address":"C_Gran_de_Sant_Andreu,176"},
{"zone":"SANT_ANDREU","rating":2.0,"name":"Rambla_de_Fabra_i_Puig","longitude":41.4303589993,"latitude":2.1845271633,"category":"ATRACCIONES","address":"C_Concepcion_Arenal,211"},
{"zone":"SANT_ANDREU","rating":2.0,"name":"Refugi_Antiaeri_de_La_Lira","longitude":41.432773502,"latitude":2.1881654863,"category":"ATRACCIONES","address":"C_Coroleu,15"},
{"zone":"SANT_ANDREU","rating":2.0,"name":"Capella_dels_Segadors","longitude":41.4362987962,"latitude":2.191490177,"category":"ATRACCIONES","address":"Pl_Orfila,5"},
{"zone":"SANT_ANDREU","rating":2.0,"name":"Casa_Vidal","longitude":41.4353551346,"latitude":2.1894400451,"category":"ATRACCIONES","address":"C_Pons_i_Gallarza,1"},
{"zone":"SANT_ANDREU","rating":2.0,"name":"Fabra_i_Coats__Fabrica_de_Creacio","longitude":41.4337939744,"latitude":2.1908326285,"category":"ATRACCIONES","address":"C_Sant_Adria,20"},
{"zone":"SANT_ANDREU","rating":2.0,"name":"Farmacia_Clapes_Vinas","longitude":41.433810608,"latitude":2.1892905826,"category":"ATRACCIONES","address":"C_Gran_de_Sant_Andreu,211"},
{"zone":"SANT_ANDREU","rating":2.0,"name":"Jardins_Placa_de_Can_Fabra","longitude":41.4349259143,"latitude":2.1917388583,"category":"ATRACCIONES","address":"Carrer_del_Segre,24"},
{"zone":"SANT_ANDREU","rating":2.0,"name":"Farmacia_Franquesa_Grau","longitude":41.4351514902,"latitude":2.1897728925,"category":"ATRACCIONES","address":"Carrer_Gran_de_Sant_Andreu,260"},
{"zone":"SANT_ANDREU","rating":2.0,"name":"Impremta_Baltasar","longitude":41.4321130428,"latitude":2.1894065564,"category":"ATRACCIONES","address":"Gran_de_Sant_Andreu,152"},
{"zone":"SANT_ANDREU","rating":2.0,"name":"Camp_Municipal_de_Futbol_Narcis_Sala","longitude":41.4288969224,"latitude":2.1930944831,"category":"ATRACCIONES","address":"C_Santa_Coloma,39"},
{"zone":"SANT_ANDREU","rating":2.0,"name":"Pilar_dAigua_de_Sant_Andreu","longitude":41.4303599258,"latitude":2.1852706828,"category":"ATRACCIONES","address":"C_Llenguadoc,95"},
{"zone":"SANT_ANDREU","rating":2.0,"name":"Ateneu__Sant_Andreu","longitude":41.4324898639,"latitude":2.1853030315,"category":"ATRACCIONES","address":"Carrer_de_lAbat_Odo,71"},
{"zone":"SANT_ANDREU","rating":2.0,"name":"Mercat_Sant_Andreu","longitude":41.4348931291,"latitude":2.1883934902,"category":"ATRACCIONES","address":"Placa_del_Mercadal,41"},
{"zone":"SANT_ANDREU","rating":2.0,"name":"Centre_Municipal_de_Cultura_Popular_de_Sant_Andreu","longitude":41.4406847325,"latitude":2.1876438165,"category":"ATRACCIONES","address":"C_Arquimedes,30"},
{"zone":"SANT_ANDREU","rating":2.0,"name":"Farmacia_Guinart_Gomez_de_Arteche","longitude":41.4370920172,"latitude":2.1897346458,"category":"ATRACCIONES","address":"Carrer_Gran_de_Sant_Andreu,306"},
{"zone":"SANT_ANDREU","rating":2.0,"name":"Club_Natacio_Sant_Andreu","longitude":41.4300504713,"latitude":2.1863133365,"category":"ATRACCIONES","address":"Rbla_Fabra_i_Puig,47"},
{"zone":"SANT_ANDREU","rating":2.0,"name":"La_Placa_del_Comerc","longitude":41.4352221508,"latitude":2.1898774744,"category":"ATRACCIONES","address":"Pl_Comerc,6"},
{"zone":"SANT_ANDREU","rating":2.0,"name":"Casal_de_Barri_Can_Portabella","longitude":41.4291308751,"latitude":2.1939367005,"category":"ATRACCIONES","address":"C_Virgili,18"},
{"zone":"SANT_ANDREU","rating":2.0,"name":"Bar_Colombia","longitude":41.4300111013,"latitude":2.1895226462,"category":"ATRACCIONES","address":"Rbla_Fabra_i_Puig,1"},
{"zone":"SANT_ANDREU","rating":2.0,"name":"Ca_lEstruc_Convent_de_les_Germanes_de_lAssumpcio","longitude":41.4355395163,"latitude":2.1880199203,"category":"ATRACCIONES","address":"C_Pons_i_Gallarza,30"},
{"zone":"SANT_ANDREU","rating":2.0,"name":"Botiga_Casa_Rusca","longitude":41.4316218674,"latitude":2.189287105,"category":"ATRACCIONES","address":"C_Gran_de_Sant_Andreu,135"},
{"zone":"SANT_ANDREU","rating":2.0,"name":"Cooperativa_La_Guardiola_Familiar","longitude":41.4305670657,"latitude":2.1918289733,"category":"ATRACCIONES","address":"C_Borriana,54"},
{"zone":"SANT_ANDREU","rating":2.0,"name":"Casal_Catolic_de_Sant_Andreu__Antic_Casino_\"El_Progres\"","longitude":41.4355570709,"latitude":2.1864669648,"category":"ATRACCIONES","address":"C_Pons_i_Gallarza,58"},
{"zone":"SANT_ANDREU","rating":2.0,"name":"Pis__Museu_Habitatge_1\/11","longitude":41.4409755545,"latitude":2.1903526624,"category":"ATRACCIONES","address":"Passeig_de_Torras_i_Bages,91"},
{"zone":"SANT_ANDREU","rating":2.0,"name":"Xemeneia_de_Can_Galta_Cremat","longitude":41.4406358775,"latitude":2.1877153612,"category":"ATRACCIONES","address":"C_Arquimedes,30"},
{"zone":"SANT_ANDREU","rating":2.0,"name":"Les_Carasses","longitude":41.4413614206,"latitude":2.1910812403,"category":"ATRACCIONES","address":"Pg_Torras_i_Bages,108"},
{"zone":"SANT_ANDREU","rating":2.0,"name":"La_placa_dOrfila","longitude":41.4362444686,"latitude":2.1909591589,"category":"ATRACCIONES","address":"Pl_Orfila,2"},
{"zone":"SANT_ANDREU","rating":2.0,"name":"Can_Fontanet__Centre_dInterpretacio_dels_Tres_Tombs_de_Sant_Andreu","longitude":41.4337939744,"latitude":2.1908326285,"category":"ATRACCIONES","address":"C_Sant_Adria,20"},
{"zone":"SANT_ANDREU","rating":2.0,"name":"Antiga_Biblioteca_Infantil_del_GATCPAC","longitude":41.4324070498,"latitude":2.1862854512,"category":"ATRACCIONES","address":"Pl_Palmeres,2"},
{"zone":"SANT_ANDREU","rating":2.0,"name":"Casernes_dArtilleria__de_Sant_Andreu","longitude":41.4439579348,"latitude":2.1905080668,"category":"ATRACCIONES","address":"Pg_Torras_i_Bages,141"},
{"zone":"SANT_ANDREU","rating":2.0,"name":"Can_Fabra","longitude":41.4348705987,"latitude":2.1906074606,"category":"ATRACCIONES","address":"Placa_de_Can_Fabra,1"},
{"zone":"SANT_ANDREU","rating":2.0,"name":"Moli_de_Sant_Andreu__Rec_Comtal","longitude":41.4430658938,"latitude":2.1940218006,"category":"ATRACCIONES","address":"C_Andana_de_lEstacio,22"},
{"zone":"SANT_ANDREU","rating":2.0,"name":"Parc_de_la_Trinitat","longitude":41.4492688252,"latitude":2.1956548754,"category":"ATRACCIONES","address":"Pg_Santa_Coloma,60"},
{"zone":"SANT_ANDREU","rating":2.0,"name":"Forn_de_Pa_de_Can_Tur","longitude":41.4320179348,"latitude":2.1933483941,"category":"ATRACCIONES","address":"Virgili,74"},
{"zone":"SANT_ANDREU","rating":2.0,"name":"Sant_Andreu_Teatre","longitude":41.4306142741,"latitude":2.1889212141,"category":"ATRACCIONES","address":"C_Neopatria,54"},
{"zone":"SANT_ANDREU","rating":2.0,"name":"Parroquia_de_Sant_Josep_Manyanet","longitude":41.4290035985,"latitude":2.1914231868,"category":"ATRACCIONES","address":"C_Sant_Sebastia,47"},
{"zone":"SANT_ANDREU","rating":2.0,"name":"Centre_Civic_Sant_Andreu","longitude":41.4308801838,"latitude":2.1894124386,"category":"ATRACCIONES","address":"Carrer_Gran_de_Sant_Andreu,111"},
{"zone":"SANT_ANDREU","rating":2.0,"name":"Clinica_Sant_Jordi","longitude":41.4367586544,"latitude":2.1930778957,"category":"ATRACCIONES","address":"Pl_Estacio,12"},
{"zone":"SANT_ANDREU","rating":2.0,"name":"Trinitat_Vella__Metro_de_Trinitat_Vella","longitude":41.4468054542,"latitude":2.1953356914,"category":"ATRACCIONES","address":"Passeig_de_Santa_Coloma,60"},
{"zone":"PORTA","rating":1.0,"name":"Masia_Can_Valent","longitude":41.4355363339,"latitude":2.1797540019,"category":"ATRACCIONES","address":"Av_Rio_de_Janeiro,51"},
{"zone":"PORTA","rating":1.0,"name":"Centre_Civic_Can_Verdaguer","longitude":41.4341045988,"latitude":2.1792048887,"category":"ATRACCIONES","address":"Carrer_de_Piferrer,94"},
{"zone":"PORTA","rating":1.0,"name":"Cementiri_Sant_Andreu","longitude":41.4374121393,"latitude":2.1790301618,"category":"ATRACCIONES","address":"Carrer_dels_Garrofers,35"},
{"zone":"PORTA","rating":1.0,"name":"Universitat_Nacional_dEducacio_a_Distancia_*Barcelona","longitude":41.4364657201,"latitude":2.1804552353,"category":"ATRACCIONES","address":"Av_Rio_de_Janeiro,56"},
{"zone":"PORTA","rating":1.0,"name":"Parc_de_Can_Drago","longitude":41.4365930694,"latitude":2.1831570057,"category":"ATRACCIONES","address":"C_Rossello_i_Porcel,7"},
{"zone":"LA_MATERNITAT_I_SANT_RAMON","rating":4.0,"name":"Masia_Torre_Rodona__Can_Vinyals_de_la_Torre","longitude":41.3859328082,"latitude":2.1239439362,"category":"ATRACCIONES","address":"C_Doctor_Salvador_Cardenal,7"},
{"zone":"LA_MATERNITAT_I_SANT_RAMON","rating":4.0,"name":"Cementiri_Les_Corts","longitude":41.3831685313,"latitude":2.1216835608,"category":"ATRACCIONES","address":"Avinguda_de_Joan_XXIII,3"},
{"zone":"LA_MATERNITAT_I_SANT_RAMON","rating":4.0,"name":"La_Porta_Sud_de_la_Finca_Guell","longitude":41.3849123559,"latitude":2.1189006112,"category":"ATRACCIONES","address":"C_Lluis_Sole_i_Sabaris,1"},
{"zone":"LA_MATERNITAT_I_SANT_RAMON","rating":4.0,"name":"Servei_dEsports_de_la_Universitat_de_Barcelona","longitude":41.3809196533,"latitude":2.1048310677,"category":"ATRACCIONES","address":"Av_Diagonal,695"},
{"zone":"LA_MATERNITAT_I_SANT_RAMON","rating":4.0,"name":"Parc_Cientific_de_Barcelona","longitude":41.3818457312,"latitude":2.1164429748,"category":"ATRACCIONES","address":"Carrer_de_Baldiri_Reixac,4"},
{"zone":"LA_MATERNITAT_I_SANT_RAMON","rating":4.0,"name":"Parroquia_de_Sant_Ramon_Nonat","longitude":41.3760371995,"latitude":2.117092819,"category":"ATRACCIONES","address":"Av_Sant_Ramon_Nonat,1"},
{"zone":"LA_MATERNITAT_I_SANT_RAMON","rating":4.0,"name":"Edifici_La_Maternitat","longitude":41.3854761432,"latitude":2.1266907592,"category":"ATRACCIONES","address":"C_Sabino_Arana,1"},
{"zone":"LA_MATERNITAT_I_SANT_RAMON","rating":4.0,"name":"LEspai_de_la_Torre_Melina_i_el_seu_Jardi_Romantic","longitude":41.3817302294,"latitude":2.1085900896,"category":"ATRACCIONES","address":"C_Torre_Melina,8"},
{"zone":"LA_MATERNITAT_I_SANT_RAMON","rating":4.0,"name":"Parc_de_Can_Rigal","longitude":41.3793281924,"latitude":2.1077390568,"category":"ATRACCIONES","address":"Av_Albert_Bastardas,23"},
{"zone":"LA_MATERNITAT_I_SANT_RAMON","rating":4.0,"name":"La_Diagonal","longitude":41.387938521,"latitude":2.1257139441,"category":"ATRACCIONES","address":"Av_Diagonal,629"},
{"zone":"LA_MATERNITAT_I_SANT_RAMON","rating":4.0,"name":"Colonia_Carne","longitude":41.3768223104,"latitude":2.1170583677,"category":"ATRACCIONES","address":"Av_Sant_Ramon_Nonat,22"},
{"zone":"LA_MATERNITAT_I_SANT_RAMON","rating":4.0,"name":"Museu_Barca_Immersive_Tour","longitude":41.3790905158,"latitude":2.1202855136,"category":"ATRACCIONES","address":"Carrer_dAristides_Maillol,12"},
{"zone":"LA_MATERNITAT_I_SANT_RAMON","rating":4.0,"name":"La_Porta_Est_de_la_Finca_Guell","longitude":41.3855591573,"latitude":2.1223275023,"category":"ATRACCIONES","address":"Av_Joan_XXIII,27"},
{"zone":"LA_MATERNITAT_I_SANT_RAMON","rating":4.0,"name":"Spotify_Camp_Nou_*_Tancat_per_remodelacio","longitude":41.3808069512,"latitude":2.1228764927,"category":"ATRACCIONES","address":"C_Aristides_Maillol,12"},
{"zone":"LA_MATERNITAT_I_SANT_RAMON","rating":4.0,"name":"LAntic_Institut_Frenopatic","longitude":41.384332084,"latitude":2.1263311628,"category":"ATRACCIONES","address":"C_Mejia_Lequerica,55"},
{"zone":"LA_MATERNITAT_I_SANT_RAMON","rating":4.0,"name":"LArea_Olimpica_de_la_Diagonal","longitude":41.3802641816,"latitude":2.1144189386,"category":"ATRACCIONES","address":"Av_Xile,29"},
{"zone":"LA_MATERNITAT_I_SANT_RAMON","rating":4.0,"name":"La_Masia_del_Barca","longitude":41.3816427556,"latitude":2.1215489678,"category":"ATRACCIONES","address":"Av_Joan_XXIII,2"},
{"zone":"LA_MATERNITAT_I_SANT_RAMON","rating":4.0,"name":"Carrer_Menendez_Pelayo","longitude":41.3837080228,"latitude":2.1202953834,"category":"ATRACCIONES","address":"Carrer_de_Menendez_y_Pelayo,2"},
{"zone":"LA_MATERNITAT_I_SANT_RAMON","rating":4.0,"name":"El_passatge_de_Xile","longitude":41.3768917244,"latitude":2.1163148198,"category":"ATRACCIONES","address":"Ptge_Xile,1"},
{"zone":"LA_MATERNITAT_I_SANT_RAMON","rating":4.0,"name":"Carrer_Marti__i_Franques","longitude":41.3850637227,"latitude":2.1179021241,"category":"ATRACCIONES","address":"Carrer_de_Marti_i_Franques,1"},
{"zone":"LA_MATERNITAT_I_SANT_RAMON","rating":4.0,"name":"Reial_Club_de_Polo_de_Barcelona","longitude":41.3812847629,"latitude":2.1144500349,"category":"ATRACCIONES","address":"Av_Doctor_Maranon,17"},
{"zone":"LA_MATERNITAT_I_SANT_RAMON","rating":4.0,"name":"Palau_de_Congressos_de_Catalunya","longitude":41.3835127468,"latitude":2.1096831258,"category":"ATRACCIONES","address":"Av_Diagonal,661"},
{"zone":"LA_MATERNITAT_I_SANT_RAMON","rating":4.0,"name":"Pati_Geologic","longitude":41.3843703773,"latitude":2.1197216759,"category":"ATRACCIONES","address":"C_Marti_i_Franques,2"},
{"zone":"LA_MATERNITAT_I_SANT_RAMON","rating":4.0,"name":"Fundacio_Sunol","longitude":41.3826518104,"latitude":2.1264102113,"category":"ATRACCIONES","address":"Carrer_de_Mejia_Lequerica,14"},
{"zone":"LA_BARCELONETA","rating":5.0,"name":"Platja_de_Sant_Sebastia","longitude":41.3737065135,"latitude":2.1896792006,"category":"ATRACCIONES","address":"Passeig_Maritim_de_la_Barceloneta__Oriol_Bohigas,2"},
{"zone":"LA_BARCELONETA","rating":5.0,"name":"Far_del_Port__Torre_del_Rellotge","longitude":41.3758307186,"latitude":2.1869970993,"category":"ATRACCIONES","address":"Moll_Pescadors,1"},
{"zone":"LA_BARCELONETA","rating":5.0,"name":"Palau_de_Mar","longitude":41.3808386412,"latitude":2.1858736815,"category":"ATRACCIONES","address":"Pl_Pau_Vila,1"},
{"zone":"LA_BARCELONETA","rating":5.0,"name":"Parc_de_les_Cascades","longitude":41.386312608,"latitude":2.1950946466,"category":"ATRACCIONES","address":"Avinguda_del_Litoral,12"},
{"zone":"LA_BARCELONETA","rating":5.0,"name":"Platja_de_la_Barceloneta","longitude":41.378614356,"latitude":2.1922222424,"category":"ATRACCIONES","address":"Passeig_Maritim_de_la_Barceloneta__Oriol_Bohigas,14"},
{"zone":"LA_BARCELONETA","rating":5.0,"name":"Torre_de_la_Catalana_de_Gas","longitude":41.3820596791,"latitude":2.1938398881,"category":"ATRACCIONES","address":"Passeig_Maritim_de_la_Barceloneta__Oriol_Bohigas,15"},
{"zone":"LA_BARCELONETA","rating":5.0,"name":"Centre_dEducacio_Ambiental_La_Fabrica_del_Sol","longitude":41.3830315803,"latitude":2.1912801964,"category":"ATRACCIONES","address":"Pg_Salvat_Papasseit,1"},
{"zone":"LA_BARCELONETA","rating":5.0,"name":"Parc_de_la_Barceloneta","longitude":41.3820550169,"latitude":2.1938384169,"category":"ATRACCIONES","address":"Passeig_Maritim_de_la_Barceloneta__Oriol_Bohigas,15"},
{"zone":"LA_BARCELONETA","rating":5.0,"name":"Cooperativa_Obrera_Popular_Segle_XX","longitude":41.3816466347,"latitude":2.1891532678,"category":"ATRACCIONES","address":"C_Atlantida,1"},
{"zone":"LA_BARCELONETA","rating":5.0,"name":"La_Maquinista_Terrestre_i_Maritima","longitude":41.3816428524,"latitude":2.1907168711,"category":"ATRACCIONES","address":"Pl_Pompeu_Gener,1"},
{"zone":"LA_BARCELONETA","rating":5.0,"name":"Mercat_Barceloneta","longitude":41.380246168,"latitude":2.1892812027,"category":"ATRACCIONES","address":"Placa_del_Poeta_Bosca,1"},
{"zone":"LA_BARCELONETA","rating":5.0,"name":"Parc_de_Recerca_Biomedica_de_Barcelona","longitude":41.3855763237,"latitude":2.1940170305,"category":"ATRACCIONES","address":"C_Doctor_Aiguader,88"},
{"zone":"LA_BARCELONETA","rating":5.0,"name":"La_Sardineta._Grup_dEcoconsum_de_la_Barceloneta","longitude":41.3816285809,"latitude":2.1905140138,"category":"ATRACCIONES","address":"C_Cermeno,7"},
{"zone":"LA_BARCELONETA","rating":5.0,"name":"Club_Natacio_Barcelona","longitude":41.3712732327,"latitude":2.1878497245,"category":"ATRACCIONES","address":"Pg_Joan_Borbo_C_Barcelona,93"},
{"zone":"LA_BARCELONETA","rating":5.0,"name":"Antiga_Subcentral_Electrica_de_la_Barceloneta","longitude":41.3794973514,"latitude":2.1900075153,"category":"ATRACCIONES","address":"C_Atlantida,57"},
{"zone":"LA_BARCELONETA","rating":5.0,"name":"Edifici_Gas_Natural","longitude":41.3831934252,"latitude":2.19015439,"category":"ATRACCIONES","address":"Pl_Gas,1"},
{"zone":"LA_BARCELONETA","rating":5.0,"name":"Casa_de_la_Marina","longitude":41.3780093114,"latitude":2.1884489605,"category":"ATRACCIONES","address":"Pg_Joan_Borbo_Comte_Barcelona,42"},
{"zone":"LA_BARCELONETA","rating":5.0,"name":"Hospital_del_Mar","longitude":41.3834336098,"latitude":2.194683622,"category":"ATRACCIONES","address":"Passeig_Maritim_de_la_Barceloneta__Oriol_Bohigas,25"},
{"zone":"LA_BARCELONETA","rating":5.0,"name":"Club_Natacio_Atletic__Barceloneta","longitude":41.3734443342,"latitude":2.1886847497,"category":"ATRACCIONES","address":"Pl_Mar,1"},
{"zone":"LA_BARCELONETA","rating":5.0,"name":"Hotel_W_Barcelona__HB004411","longitude":41.3683613055,"latitude":2.1899983126,"category":"ATRACCIONES","address":"Pl_Rosa_dels_Vents,1"},
{"zone":"LA_BARCELONETA","rating":5.0,"name":"La_Barceloneta","longitude":41.3795686088,"latitude":2.1891173605,"category":"ATRACCIONES","address":"C_Baluard,50"},
{"zone":"LA_BARCELONETA","rating":5.0,"name":"Teleferic_de_Barcelona","longitude":41.3732501463,"latitude":2.1878757161,"category":"ATRACCIONES","address":"Pg_Joan_Borbo_C_Barcelona,88"},
{"zone":"LA_BARCELONETA","rating":5.0,"name":"Biblioteca_Barceloneta___La_Fraternitat","longitude":41.3792326289,"latitude":2.1888716403,"category":"ATRACCIONES","address":"Carrer_de_Felicia_Fuster_i_Viladecans,8"},
{"zone":"LA_SALUT","rating":7.0,"name":"Casa_Museu_Gaudi","longitude":41.4148123213,"latitude":2.1550643342,"category":"ATRACCIONES","address":"Carretera_del_Carmel,23"},
{"zone":"LA_SALUT","rating":7.0,"name":"Club_Tennis_La_Salut","longitude":41.4123404211,"latitude":2.1581919858,"category":"ATRACCIONES","address":"Carrer_de_la_Mare_de_Deu_de_la_Salut,75"},
{"zone":"LA_SALUT","rating":7.0,"name":"Club_Natacio_Catalunya","longitude":41.4153826054,"latitude":2.1581717784,"category":"ATRACCIONES","address":"Carrer_dAna_Maria_Matute_Ausejo,25"},
{"zone":"LA_SALUT","rating":7.0,"name":"Esglesia_del_Reial_Santuari_de_Sant_Josep_de_la_Muntanya","longitude":41.4104399703,"latitude":2.1541954931,"category":"ATRACCIONES","address":"Av_Santuari_St_Josep_Muntanya,25"},
{"zone":"LA_SALUT","rating":7.0,"name":"Casa_Tomas_Valls","longitude":41.410989814,"latitude":2.1560533526,"category":"ATRACCIONES","address":"C_Mare_de_Deu_de_la_Salut,31"},
{"zone":"LA_SALUT","rating":7.0,"name":"Nou_Hospital_Evangelic","longitude":41.411103276,"latitude":2.1589187127,"category":"ATRACCIONES","address":"C_Camelies,15"},
{"zone":"LA_SALUT","rating":7.0,"name":"Can_Muntaner_de_Dalt","longitude":41.4135092487,"latitude":2.1531271964,"category":"ATRACCIONES","address":"C_Olot,1"},
{"zone":"LA_SALUT","rating":7.0,"name":"Casa_Marti_Trias_i_Domenech","longitude":41.4135092487,"latitude":2.1531271964,"category":"ATRACCIONES","address":"C_Olot,5"},
{"zone":"LA_SALUT","rating":7.0,"name":"Park_Guell","longitude":41.4135092487,"latitude":2.1531271964,"category":"ATRACCIONES","address":"Carrer_dOlot,7"},
{"zone":"LA_SALUT","rating":7.0,"name":"Hospital__Sociosanitari_Mutuam_Guell","longitude":41.4114451547,"latitude":2.1567276832,"category":"ATRACCIONES","address":"C_Mare_de_Deu_de_la_Salut,49"},
{"zone":"LA_SALUT","rating":7.0,"name":"Kasa_de_la_Muntanya_(KM)","longitude":41.4104399703,"latitude":2.1541954931,"category":"ATRACCIONES","address":"Av_Santuari_St_Josep_Muntanya,19"},
{"zone":"LA_SALUT","rating":7.0,"name":"Casa_Pere_Jaques","longitude":41.4128509427,"latitude":2.1523783934,"category":"ATRACCIONES","address":"C_Olot,2"},
{"zone":"LA_SALUT","rating":7.0,"name":"Ermita_de_la_Mare_de_Deu_de_la_Salut","longitude":41.4115499547,"latitude":2.1571098369,"category":"ATRACCIONES","address":"C_Mare_de_Deu_de_la_Salut,55"},
{"zone":"LA_SALUT","rating":7.0,"name":"Casa_Vilaro","longitude":41.4113662366,"latitude":2.15143363,"category":"ATRACCIONES","address":"Av_Coll_del_Portell,43"},
{"zone":"LA_SALUT","rating":7.0,"name":"Can_Tusquets","longitude":41.4104399703,"latitude":2.1541954931,"category":"ATRACCIONES","address":"Av_Santuari_St_Josep_Muntanya,1"},
{"zone":"LA_SALUT","rating":7.0,"name":"Club_Esportiu_Europa","longitude":41.4120436129,"latitude":2.1604194728,"category":"ATRACCIONES","address":"Carrer_de_Pau_Alsina,138"},
{"zone":"EL_COLL","rating":7.0,"name":"Casa_Queralt","longitude":41.4192717981,"latitude":2.1479258103,"category":"ATRACCIONES","address":"C_Pineda,12"},
{"zone":"EL_COLL","rating":7.0,"name":"Parc_de_la_Creueta_del_Coll","longitude":41.4192642624,"latitude":2.146252057,"category":"ATRACCIONES","address":"Pg_Mare_de_Deu_del_Coll,77"},
{"zone":"EL_COLL","rating":7.0,"name":"Parroquia_de_la_Mare_de_Deu_del_Coll","longitude":41.4201320636,"latitude":2.1513194172,"category":"ATRACCIONES","address":"C_Santuari,30"},
{"zone":"EL_COLL","rating":7.0,"name":"Centre_Civic_El_Coll__La_Bruguera","longitude":41.4186065048,"latitude":2.1499153208,"category":"ATRACCIONES","address":"Carrer_de_lAldea,15"},
{"zone":"EL_COLL","rating":7.0,"name":"Finca_Sansalvador","longitude":41.4189449746,"latitude":2.1483588432,"category":"ATRACCIONES","address":"Pg_Mare_de_Deu_del_Coll,79"},
{"zone":"EL_COLL","rating":7.0,"name":"Torre_de_Sant_Jordi","longitude":41.4138655071,"latitude":2.1455388401,"category":"ATRACCIONES","address":"C_Sant_Eudald,11"},
{"zone":"EL_COLL","rating":7.0,"name":"Villa_Conchita_o_Casa_dels_Metges","longitude":41.4192132149,"latitude":2.1484843109,"category":"ATRACCIONES","address":"Pg_Mare_de_Deu_del_Coll,81"},
{"zone":"VERDUN","rating":1.0,"name":"Associacio_Nou_Barris_Centre_Comerc","longitude":41.4413356017,"latitude":2.1762138676,"category":"ATRACCIONES","address":"C_Pare_Rodes,51"},
{"zone":"LA_GUINEUETA","rating":1.0,"name":"Escultura_Pi_i_MargallLa_Republica","longitude":41.438224061,"latitude":2.1740546618,"category":"ATRACCIONES","address":"Pl_de_la_Republica,1"},
{"zone":"LA_GUINEUETA","rating":1.0,"name":"Mercat_Guineueta","longitude":41.4386525477,"latitude":2.1702456728,"category":"ATRACCIONES","address":"Passeig_de_Valldaura,186"},
{"zone":"LA_GUINEUETA","rating":1.0,"name":"LAqueducte_del_Parc_Central_de_Nou_Barris","longitude":41.4368445525,"latitude":2.1712296246,"category":"ATRACCIONES","address":"Pl_Major_de_Nou_Barris,1"},
{"zone":"LA_GUINEUETA","rating":1.0,"name":"Parc_de_la_Guineueta","longitude":41.4390497375,"latitude":2.1744888745,"category":"ATRACCIONES","address":"Placa_de_la_Republica,9"},
{"zone":"LA_GUINEUETA","rating":1.0,"name":"Seu_del_Districte_de_Nou_Barris","longitude":41.4368445525,"latitude":2.1712296246,"category":"ATRACCIONES","address":"Pl_Major_de_Nou_Barris,1"},
{"zone":"LA_GUINEUETA","rating":1.0,"name":"Esglesia_Antic_Institut_Mental","longitude":41.4369935602,"latitude":2.1691554098,"category":"ATRACCIONES","address":"C_Marie_Curie,8"},
{"zone":"LA_GUINEUETA","rating":1.0,"name":"Parc_Central_de_Nou_Barris","longitude":41.4368445525,"latitude":2.1712296246,"category":"ATRACCIONES","address":"Pl_Major_de_Nou_Barris,1"},
{"zone":"LA_VERNEDA_I_LA_PAU","rating":9.0,"name":"Fundacio_Privada_Desenvolupament_Comunitari","longitude":41.4227952037,"latitude":2.2089695991,"category":"ATRACCIONES","address":"C_Pere_Verges,1"},
{"zone":"LA_TRINITAT_VELLA","rating":2.0,"name":"La_llera_del_riu_Besos","longitude":41.45464962,"latitude":2.1909188386,"category":"ATRACCIONES","address":"Pl_Turo_de_la_Trinitat,1"},
{"zone":"LA_TRINITAT_VELLA","rating":2.0,"name":"MUHBA_Museu_dHistoria_de_Barcelona__Casa_de_lAigua","longitude":41.4546386424,"latitude":2.1897290969,"category":"ATRACCIONES","address":"Carretera_de_Ribes,103"},
{"zone":"LA_TRINITAT_VELLA","rating":2.0,"name":"Parroquia_de_la_Santissima_Trinitat","longitude":41.4503165385,"latitude":2.1904799871,"category":"ATRACCIONES","address":"C_Turo_de_la_Trinitat,30"},
{"zone":"LA_TRINITAT_VELLA","rating":2.0,"name":"Centre_Penitenciari_Obert_2___Preso_de_Dones_de_la_Trinitat","longitude":41.4535285233,"latitude":2.1914632991,"category":"ATRACCIONES","address":"C_Pare_Manjon,2"},
{"zone":"EL_BON_PASTOR","rating":2.0,"name":"Fabrica_Sanchis","longitude":41.4349738428,"latitude":2.2053884405,"category":"ATRACCIONES","address":"Pg_Enric_Sanchis,21"},
{"zone":"EL_BON_PASTOR","rating":2.0,"name":"El_barri_del_Bon_Pastor","longitude":41.4354789645,"latitude":2.2045878801,"category":"ATRACCIONES","address":"C_Estadella,65"},
{"zone":"EL_BON_PASTOR","rating":2.0,"name":"Cases_Barates_del_Bon_Pastor","longitude":41.437833661,"latitude":2.206192154,"category":"ATRACCIONES","address":"C_Bellmunt,28"},
{"zone":"EL_BON_PASTOR","rating":2.0,"name":"Parc_de_la_Maquinista_per_les_treballadores_i_els_treballadors_de_la_Maquinista","longitude":41.436343203,"latitude":2.1961010844,"category":"ATRACCIONES","address":"Passeig_de_lHavana,2"}
]