[{"zone":"EL_RAVAL","rating":5,"name":"COMESTIBLES","latitude":41.37734393,"longitude":2.16653824,"category":"TIENDAS","address":"REINA_AMALIA10"},
  {"zone":"EL_RAVAL","rating":5,"name":"COMESTIBLES","latitude":41.37734393,"longitude":2.16653824,"category":"TIENDAS","address":"REINA_AMALIA10"},
  {"zone":"EL_CAMP_DE_LARPA_DEL_CLOT","rating":9,"name":"PARQUETS_I_MOQUETES","latitude":41.41050807,"longitude":2.18057156,"category":"TIENDAS","address":"ROSSELLO10"},
  {"zone":"LA_DRETA_DE_LEIXAMPLE","rating":10,"name":"MUSEU_DEL_MODERNISME_CATALA","latitude":41.38883308,"longitude":2.16343864,"category":"TIENDAS","address":"BALMES10"},
  {"zone":"NAVAS","rating":2,"name":"EL_RACO_DE_LA_SIO","latitude":41.42049504,"longitude":2.18377814,"category":"TIENDAS","address":"CONCEPCION_ARENAL20"},
  {"zone":"LANTIGA_ESQUERRA_DE_LEIXAMPLE","rating":10,"name":"LIFE","latitude":41.38673833,"longitude":2.15521932,"category":"TIENDAS","address":"VALENCIA70"},
  {"zone":"LES_CORTS","rating":4,"name":"GRACIA_ARIAS","latitude":41.38935838,"longitude":2.13789761,"category":"TIENDAS","address":"TAQUIGRAF_GARRIGA40"},
  {"zone":"LES_CORTS","rating":4,"name":"ASICS","latitude":41.39033634,"longitude":2.13714659,"category":"TIENDAS","address":"AV_DIAGONAL30"},
  {"zone":"LA_DRETA_DE_LEIXAMPLE","rating":10,"name":"HUNGARYTO","latitude":41.397321,"longitude":2.171457,"category":"TIENDAS","address":"ARAGO10"},
  {"zone":"LA_DRETA_DE_LEIXAMPLE","rating":10,"name":"MAS_Q_MENOS","latitude":41.39658998,"longitude":2.17372873,"category":"TIENDAS","address":"PG_SANT_JOAN10"},
  {"zone":"LES_CORTS","rating":4,"name":"CA_NANDREU","latitude":41.3867401,"longitude":2.13470144,"category":"TIENDAS","address":"TRAV_CORTS40"},
  {"zone":"LA_DRETA_DE_LEIXAMPLE","rating":10,"name":"SN","latitude":41.39699053,"longitude":2.17373729,"category":"TIENDAS","address":"CONSELL_DE_CENT20"},
  {"zone":"LA_DRETA_DE_LEIXAMPLE","rating":10,"name":"SUPERMERCAT_PELAI","latitude":41.38585792,"longitude":2.16660663,"category":"TIENDAS","address":"PELAI50"},
  {"zone":"LA_DRETA_DE_LEIXAMPLE","rating":10,"name":"NATUR_HOUSE","latitude":41.39768289,"longitude":2.17011437,"category":"TIENDAS","address":"VALENCIA10"},
  {"zone":"LA_DRETA_DE_LEIXAMPLE","rating":10,"name":"BONICA","latitude":41.39815448,"longitude":2.1731995,"category":"TIENDAS","address":"ARAGO30"},
  {"zone":"EL_POBLENOU","rating":9,"name":"BROOMX","latitude":41.3987223,"longitude":2.19548516,"category":"TIENDAS","address":"BADAJOZ10"},
  {"zone":"EL_POBLENOU","rating":9,"name":"SCHINDLER","latitude":41.40142694,"longitude":2.19873816,"category":"TIENDAS","address":"LLACUNA10"},
  {"zone":"EL_POBLENOU","rating":9,"name":"ESTUDI_NOVELL","latitude":41.40043339,"longitude":2.1999922,"category":"TIENDAS","address":"LLACUNA10"},
  {"zone":"LA_DRETA_DE_LEIXAMPLE","rating":10,"name":"VIAJES_SANHE","latitude":41.3908877,"longitude":2.178348,"category":"TIENDAS","address":"RDA_SANT_PERE30"},
  {"zone":"LA_NOVA_ESQUERRA_DE_LEIXAMPLE","rating":10,"name":"FARMACIA_JORDI_DALMASES","latitude":41.38210671,"longitude":2.15132877,"category":"TIENDAS","address":"ARAGO20"},
  {"zone":"EL_CAMP_DE_LARPA_DEL_CLOT","rating":9,"name":"SUPERMERCAT_TASFIA","latitude":41.40756398,"longitude":2.18294799,"category":"TIENDAS","address":"VALENCIA20"},
  {"zone":"LA_DRETA_DE_LEIXAMPLE","rating":10,"name":"YAMATO_TRANSPORT","latitude":41.39017436,"longitude":2.16167808,"category":"TIENDAS","address":"BALMES20"},
  {"zone":"LANTIGA_ESQUERRA_DE_LEIXAMPLE","rating":10,"name":"zone_ELEVEN","latitude":41.38659244,"longitude":2.15926275,"category":"TIENDAS","address":"MUNTANER10"},
  {"zone":"EL_POBLENOU","rating":9,"name":"TECNIVERT","latitude":41.40297597,"longitude":2.20222422,"category":"TIENDAS","address":"PUJADES10"},
  {"zone":"VERDUN","rating":1,"name":"CA_ENSENYA","latitude":41.44453693,"longitude":2.1752058,"category":"TIENDAS","address":"VIA_FAVENCIA40"},
  {"zone":"LA_DRETA_DE_LEIXAMPLE","rating":10,"name":"J._PORTE_SLU","latitude":41.39644828,"longitude":2.17143327,"category":"TIENDAS","address":"BAILEN80"},
  {"zone":"LANTIGA_ESQUERRA_DE_LEIXAMPLE","rating":10,"name":"SA_VIQS","latitude":41.38880902,"longitude":2.15626672,"category":"TIENDAS","address":"MUNTANER20"},
  {"zone":"LA_DRETA_DE_LEIXAMPLE","rating":10,"name":"NEBRASKA","latitude":41.40053465,"longitude":2.17055216,"category":"TIENDAS","address":"ROGER_DE_FLOR20"},
  {"zone":"LA_DRETA_DE_LEIXAMPLE","rating":10,"name":"MANGO","latitude":41.39308594,"longitude":2.16095841,"category":"TIENDAS","address":"RBLA_CATALUNYA10"},
  {"zone":"LA_DRETA_DE_LEIXAMPLE","rating":10,"name":"SN","latitude":41.39699053,"longitude":2.17373729,"category":"TIENDAS","address":"CONSELL_DE_CENT20"},
  {"zone":"EL_FORT_PIENC","rating":10,"name":"CA2L_LUXOMETER","latitude":41.39268661,"longitude":2.17987284,"category":"TIENDAS","address":"ALI_BEI20"},
  {"zone":"LA_DRETA_DE_LEIXAMPLE","rating":10,"name":"BONICA","latitude":41.39815448,"longitude":2.1731995,"category":"TIENDAS","address":"ARAGO30"},
  {"zone":"EL_FORT_PIENC","rating":10,"name":"ARA_MOTOS","latitude":41.39563439,"longitude":2.17874363,"category":"TIENDAS","address":"CASP30"},
  {"zone":"LA_VERNEDA_I_LA_PAU","rating":9,"name":"PARROQUIA_DE_SANT_JOAN_DAVILA","latitude":41.42552717,"longitude":2.20102206,"category":"TIENDAS","address":"RBLA_PRIM150"},
  {"zone":"SANT_ANTONI","rating":10,"name":"RESTAURANT_JAPONES_WOK_DAO","latitude":41.38032662,"longitude":2.16292017,"category":"TIENDAS","address":"TAMARIT10"},
  {"zone":"LANTIGA_ESQUERRA_DE_LEIXAMPLE","rating":10,"name":"SM_ESTUDIO","latitude":41.38793614,"longitude":2.1526249,"category":"TIENDAS","address":"PROVENCA10"},
  {"zone":"LANTIGA_ESQUERRA_DE_LEIXAMPLE","rating":10,"name":"AUSTRALIAN_GOLD","latitude":41.38942826,"longitude":2.15814171,"category":"TIENDAS","address":"ARIBAU10"},
  {"zone":"LA_DRETA_DE_LEIXAMPLE","rating":10,"name":"J._PORTE_SLU","latitude":41.39644828,"longitude":2.17143327,"category":"TIENDAS","address":"BAILEN80"},
  {"zone":"LANTIGA_ESQUERRA_DE_LEIXAMPLE","rating":10,"name":"FISIO_ESSENCIA","latitude":41.38845888,"longitude":2.15790555,"category":"TIENDAS","address":"VALENCIA20"},
  {"zone":"LA_DRETA_DE_LEIXAMPLE","rating":10,"name":"BONICA","latitude":41.39815448,"longitude":2.1731995,"category":"TIENDAS","address":"ARAGO30"},
  {"zone":"EL_POBLENOU","rating":9,"name":"FRUITES_I_VERDURES_HUI_YUAN","latitude":41.39912125,"longitude":2.2036238,"category":"TIENDAS","address":"RBLA_POBLENOU50"},
  {"zone":"SANT_ANTONI","rating":10,"name":"LIA_XIAN","latitude":41.37516791,"longitude":2.16465905,"category":"TIENDAS","address":"AV_PARAL*LEL10"},
  {"zone":"SANT_ANTONI","rating":10,"name":"RESTAURANT_AUGUST","latitude":41.37561117,"longitude":2.16692106,"category":"TIENDAS","address":"RDA_SANT_PAU10"},
  {"zone":"EL_BON_PASTOR","rating":2,"name":"SN","latitude":41.43431637,"longitude":2.20398188,"category":"TIENDAS","address":"FOC_FOLLET20"},
  {"zone":"LANTIGA_ESQUERRA_DE_LEIXAMPLE","rating":10,"name":"AUSTRALIAN_GOLD","latitude":41.38942826,"longitude":2.15814171,"category":"TIENDAS","address":"ARIBAU10"},
  {"zone":"LA_DRETA_DE_LEIXAMPLE","rating":10,"name":"FEDERACIO_DE_MUTUALITATS_DE_CATALUNYA","latitude":41.39381278,"longitude":2.1704558,"category":"TIENDAS","address":"BRUC10"},
  {"zone":"EL_CLOT","rating":9,"name":"IAIA_CELIA","latitude":41.40942178,"longitude":2.18833521,"category":"TIENDAS","address":"ARAGO20"},
  {"zone":"LA_DRETA_DE_LEIXAMPLE","rating":10,"name":"SUPERMERCAT_PELAI","latitude":41.38585792,"longitude":2.16660663,"category":"TIENDAS","address":"PELAI50"},
  {"zone":"LANTIGA_ESQUERRA_DE_LEIXAMPLE","rating":10,"name":"SM_ESTUDIO","latitude":41.38793614,"longitude":2.1526249,"category":"TIENDAS","address":"PROVENCA10"},
  {"zone":"LA_NOVA_ESQUERRA_DE_LEIXAMPLE","rating":10,"name":"ORION","latitude":41.3816443,"longitude":2.15748713,"category":"TIENDAS","address":"G.V._CORTS_CATALANES10"},
  {"zone":"LANTIGA_ESQUERRA_DE_LEIXAMPLE","rating":10,"name":"FISIO_ESSENCIA","latitude":41.38845888,"longitude":2.15790555,"category":"TIENDAS","address":"VALENCIA20"},
  {"zone":"LA_DRETA_DE_LEIXAMPLE","rating":10,"name":"ABALONG","latitude":41.38971687,"longitude":2.17519494,"category":"TIENDAS","address":"RDA_SANT_PERE50"},
  {"zone":"LA_DRETA_DE_LEIXAMPLE","rating":10,"name":"LAMPISTERIA_J._JURJO_S.L","latitude":41.40233074,"longitude":2.169494,"category":"TIENDAS","address":"ROSSELLO10"},
  {"zone":"SANT_ANTONI","rating":10,"name":"PANQA","latitude":41.37830799,"longitude":2.15617016,"category":"TIENDAS","address":"SEPULVEDA10"},
  {"zone":"LA_DRETA_DE_LEIXAMPLE","rating":10,"name":"MAJORAL","latitude":41.3907398,"longitude":2.16542512,"category":"TIENDAS","address":"CONSELL_DE_CENT40"},
  {"zone":"VILAPICINA_I_LA_TORRE_LLOBETA","rating":1,"name":"BANKIA","latitude":41.42834274,"longitude":2.18402356,"category":"TIENDAS","address":"AV_MERIDIANA10"},
  {"zone":"LANTIGA_ESQUERRA_DE_LEIXAMPLE","rating":10,"name":"ESCOLET_OLIVER","latitude":41.38890102,"longitude":2.15431523,"category":"TIENDAS","address":"CASANOVA10"},
  {"zone":"LA_DRETA_DE_LEIXAMPLE","rating":10,"name":"YAMATO_TRANSPORT","latitude":41.39017436,"longitude":2.16167808,"category":"TIENDAS","address":"BALMES20"},
  {"zone":"EL_POBLENOU","rating":9,"name":"FRUITES_I_VERDURES_HUI_YUAN","latitude":41.39912125,"longitude":2.2036238,"category":"TIENDAS","address":"RBLA_POBLENOU50"},
  {"zone":"LA_DRETA_DE_LEIXAMPLE","rating":10,"name":"SANTANDER","latitude":41.39217847,"longitude":2.17484188,"category":"TIENDAS","address":"GIRONA20"},
  {"zone":"LANTIGA_ESQUERRA_DE_LEIXAMPLE","rating":10,"name":"LIFE","latitude":41.38673833,"longitude":2.15521932,"category":"TIENDAS","address":"VALENCIA70"},
  {"zone":"LA_DRETA_DE_LEIXAMPLE","rating":10,"name":"EL_FORNET","latitude":41.39278951,"longitude":2.16597186,"category":"TIENDAS","address":"ARAGO10"},
  {"zone":"EL_CLOT","rating":9,"name":"SN","latitude":41.40649776,"longitude":2.18900174,"category":"TIENDAS","address":"ESCULTORS_CLAPEROS20"},
  {"zone":"LA_DRETA_DE_LEIXAMPLE","rating":10,"name":"CAMPER","latitude":41.39271981,"longitude":2.16316402,"category":"TIENDAS","address":"VALENCIA20"},
  {"zone":"LES_CORTS","rating":4,"name":"CARACTER_JAVIER_PABLOS","latitude":41.38935288,"longitude":2.13755482,"category":"TIENDAS","address":"DEU_I_MATA30"},
  {"zone":"LANTIGA_ESQUERRA_DE_LEIXAMPLE","rating":10,"name":"FUTAMI","latitude":41.38856411,"longitude":2.16153465,"category":"TIENDAS","address":"ENRIC_GRANADOS30"},
  {"zone":"LA_DRETA_DE_LEIXAMPLE","rating":10,"name":"SN","latitude":41.39699053,"longitude":2.17373729,"category":"TIENDAS","address":"CONSELL_DE_CENT20"},
  {"zone":"LANTIGA_ESQUERRA_DE_LEIXAMPLE","rating":10,"name":"ABELLA","latitude":41.3910034,"longitude":2.15183437,"category":"TIENDAS","address":"CORSEGA20"},
  {"zone":"LA_NOVA_ESQUERRA_DE_LEIXAMPLE","rating":10,"name":"BONIQUES","latitude":41.3867333,"longitude":2.14614674,"category":"TIENDAS","address":"CORSEGA20"},
  {"zone":"EL_POBLENOU","rating":9,"name":"TECNIVERT","latitude":41.40297597,"longitude":2.20222422,"category":"TIENDAS","address":"PUJADES10"},
  {"zone":"LA_DRETA_DE_LEIXAMPLE","rating":10,"name":"NEBRASKA","latitude":41.40053465,"longitude":2.17055216,"category":"TIENDAS","address":"ROGER_DE_FLOR20"},
  {"zone":"LA_DRETA_DE_LEIXAMPLE","rating":10,"name":"LAMPISTERIA_J._JURJO_S.L","latitude":41.40233074,"longitude":2.169494,"category":"TIENDAS","address":"ROSSELLO10"},
  {"zone":"LANTIGA_ESQUERRA_DE_LEIXAMPLE","rating":10,"name":"FUR_STYL","latitude":41.38960135,"longitude":2.15901802,"category":"TIENDAS","address":"VALENCIA20"},
  {"zone":"LA_NOVA_ESQUERRA_DE_LEIXAMPLE","rating":10,"name":"FARMACIA_JORDI_DALMASES","latitude":41.38210671,"longitude":2.15132877,"category":"TIENDAS","address":"ARAGO20"},
  {"zone":"EL_POBLENOU","rating":9,"name":"DIA_MARKET","latitude":41.40344787,"longitude":2.20692158,"category":"TIENDAS","address":"ESPRONCEDA20"},
  {"zone":"EL_POBLENOU","rating":9,"name":"BROOMX","latitude":41.3987223,"longitude":2.19548516,"category":"TIENDAS","address":"BADAJOZ10"},
  {"zone":"EL_FORT_PIENC","rating":10,"name":"GRUPO_TODOPLANO","latitude":41.39551065,"longitude":2.17718661,"category":"TIENDAS","address":"ROGER_DE_FLOR10"},
  {"zone":"SANT_ANTONI","rating":10,"name":"BAJAR_SEGONA_MA","latitude":41.37639597,"longitude":2.16448501,"category":"TIENDAS","address":"MARQUES_DE_CAMPO_SAGRADO20"},
  {"zone":"SANT_ANDREU","rating":2,"name":"EURODONER","latitude":41.42838296,"longitude":2.1937412,"category":"TIENDAS","address":"VIRGILI30"},
  {"zone":"LA_DRETA_DE_LEIXAMPLE","rating":10,"name":"NEBRASKA","latitude":41.40053465,"longitude":2.17055216,"category":"TIENDAS","address":"ROGER_DE_FLOR20"},
  {"zone":"LES_CORTS","rating":4,"name":"PELUQUERIA","latitude":41.38853937,"longitude":2.14136168,"category":"TIENDAS","address":"BORDEUS20"},
  {"zone":"SANT_ANTONI","rating":10,"name":"PORTUARIA","latitude":41.37567743,"longitude":2.15828508,"category":"TIENDAS","address":"ROCAFORT10"},
  {"zone":"LANTIGA_ESQUERRA_DE_LEIXAMPLE","rating":10,"name":"ORETORNO","latitude":41.38677689,"longitude":2.15269448,"category":"TIENDAS","address":"COMTE_DURGELL30"},
  {"zone":"LA_DRETA_DE_LEIXAMPLE","rating":10,"name":"MUJI","latitude":41.39205981,"longitude":2.16183364,"category":"TIENDAS","address":"RBLA_CATALUNYA10"},
  {"zone":"LA_DRETA_DE_LEIXAMPLE","rating":10,"name":"MUJI","latitude":41.39205981,"longitude":2.16183364,"category":"TIENDAS","address":"RBLA_CATALUNYA10"},
  {"zone":"EL_FORT_PIENC","rating":10,"name":"SN","latitude":41.39520984,"longitude":2.18057424,"category":"TIENDAS","address":"AUSIAS_MARC10"},
  {"zone":"LA_DRETA_DE_LEIXAMPLE","rating":10,"name":"SN","latitude":41.39699053,"longitude":2.17373729,"category":"TIENDAS","address":"CONSELL_DE_CENT20"},
  {"zone":"EL_POBLENOU","rating":9,"name":"MAPE_GRUP","latitude":41.3953034,"longitude":2.19960853,"category":"TIENDAS","address":"BADAJOZ50"},
  {"zone":"LANTIGA_ESQUERRA_DE_LEIXAMPLE","rating":10,"name":"FISIO_ESSENCIA","latitude":41.38845888,"longitude":2.15790555,"category":"TIENDAS","address":"VALENCIA20"},
  {"zone":"LA_DRETA_DE_LEIXAMPLE","rating":10,"name":"GRANJA_LA_SUISSA","latitude":41.39141188,"longitude":2.17371583,"category":"TIENDAS","address":"CASP40"},
  {"zone":"LANTIGA_ESQUERRA_DE_LEIXAMPLE","rating":10,"name":"NAILS_FACTORY","latitude":41.39051342,"longitude":2.16068432,"category":"TIENDAS","address":"VALENCIA20"},
  {"zone":"LA_DRETA_DE_LEIXAMPLE","rating":10,"name":"THE_PASSAGE","latitude":41.39450459,"longitude":2.16011435,"category":"TIENDAS","address":"PTGE_CONCEPCIO10"},
  {"zone":"EL_POBLENOU","rating":9,"name":"BAR_TU_Y_YO","latitude":41.40152653,"longitude":2.19683245,"category":"TIENDAS","address":"PERE_IV10"},
  {"zone":"EL_CLOT","rating":9,"name":"MONMAR","latitude":41.41259812,"longitude":2.19416499,"category":"TIENDAS","address":"CONCILI_DE_TRENTO50"},
  {"zone":"EL_POBLENOU","rating":9,"name":"AVANCE_VISUAL","latitude":41.40303544,"longitude":2.2051768,"category":"TIENDAS","address":"LLULL40"},
  {"zone":"LANTIGA_ESQUERRA_DE_LEIXAMPLE","rating":10,"name":"FUTAMI","latitude":41.38856411,"longitude":2.16153465,"category":"TIENDAS","address":"ENRIC_GRANADOS30"},
  {"zone":"EL_FORT_PIENC","rating":10,"name":"CA2L_LUXOMETER","latitude":41.39268661,"longitude":2.17987284,"category":"TIENDAS","address":"ALI_BEI20"},
  {"zone":"EL_POBLENOU","rating":9,"name":"SCHINDLER","latitude":41.40142694,"longitude":2.19873816,"category":"TIENDAS","address":"LLACUNA10"},
  {"zone":"PEDRALBES","rating":4,"name":"HONEST_FOOD","latitude":41.38726054,"longitude":2.11332053,"category":"TIENDAS","address":"JORDI_GIRONA10"},
  {"zone":"LA_DRETA_DE_LEIXAMPLE","rating":10,"name":"LA_TASCA_DOR","latitude":41.39951962,"longitude":2.16735765,"category":"TIENDAS","address":"BAILEN10"},
  {"zone":"EL_FORT_PIENC","rating":10,"name":"SN","latitude":41.40062418,"longitude":2.18412414,"category":"TIENDAS","address":"PADILLA10"},
  {"zone":"EL_POBLENOU","rating":9,"name":"BROOMX","latitude":41.3987223,"longitude":2.19548516,"category":"TIENDAS","address":"BADAJOZ10"},
  {"zone":"EL_POBLENOU","rating":9,"name":"BAR_WANG","latitude":41.4018424,"longitude":2.20110387,"category":"TIENDAS","address":"PUJADES20"},
  {"zone":"LA_DRETA_DE_LEIXAMPLE","rating":10,"name":"FEDERACIO_DE_MUTUALITATS_DE_CATALUNYA","latitude":41.39381278,"longitude":2.1704558,"category":"TIENDAS","address":"BRUC10"},
  {"zone":"LA_DRETA_DE_LEIXAMPLE","rating":10,"name":"DIAGONAL_321_ADVOCATS","latitude":41.39913886,"longitude":2.17091106,"category":"TIENDAS","address":"AV_DIAGONAL10"},
  {"zone":"SANT_ANTONI","rating":10,"name":"FOXLIVE","latitude":41.38312643,"longitude":2.16196167,"category":"TIENDAS","address":"CASANOVA10"},
  {"zone":"EL_RAVAL","rating":5,"name":"SN","latitude":41.37729434,"longitude":2.17369874,"category":"TIENDAS","address":"EST10"},
  {"zone":"LES_CORTS","rating":4,"name":"GRACIA_ARIAS","latitude":41.38935838,"longitude":2.13789761,"category":"TIENDAS","address":"TAQUIGRAF_GARRIGA40"},
  {"zone":"LA_DRETA_DE_LEIXAMPLE","rating":10,"name":"HUNGARYTO","latitude":41.397321,"longitude":2.171457,"category":"TIENDAS","address":"ARAGO10"},
  {"zone":"SANT_ANTONI","rating":10,"name":"DIVINA_LUZ","latitude":41.37631848,"longitude":2.15255722,"category":"TIENDAS","address":"VILAMARI10"},
  {"zone":"LA_DRETA_DE_LEIXAMPLE","rating":10,"name":"J._PORTE_SLU","latitude":41.39644828,"longitude":2.17143327,"category":"TIENDAS","address":"BAILEN80"},
  {"zone":"LA_DRETA_DE_LEIXAMPLE","rating":10,"name":"SUPERMERCAT_PELAI","latitude":41.38585792,"longitude":2.16660663,"category":"TIENDAS","address":"PELAI50"},
  {"zone":"LANTIGA_ESQUERRA_DE_LEIXAMPLE","rating":10,"name":"CAPRABO","latitude":41.39310067,"longitude":2.15328188,"category":"TIENDAS","address":"ARIBAU10"},
  {"zone":"LA_DRETA_DE_LEIXAMPLE","rating":10,"name":"JUGUETERIA","latitude":41.396358,"longitude":2.170177,"category":"TIENDAS","address":"ARAGO10"},
  {"zone":"LA_DRETA_DE_LEIXAMPLE","rating":10,"name":"CAMPER","latitude":41.39271981,"longitude":2.16316402,"category":"TIENDAS","address":"VALENCIA20"},
  {"zone":"LA_DRETA_DE_LEIXAMPLE","rating":10,"name":"AMSERMAN","latitude":41.396577,"longitude":2.170466,"category":"TIENDAS","address":"ARAGO10"},
  {"zone":"LANTIGA_ESQUERRA_DE_LEIXAMPLE","rating":10,"name":"LA_CASA_DE_LES_CLAUS","latitude":41.3859032,"longitude":2.15398952,"category":"TIENDAS","address":"VALENCIA20"},
  {"zone":"LA_NOVA_ESQUERRA_DE_LEIXAMPLE","rating":10,"name":"CRUIX","latitude":41.37811697,"longitude":2.1523836,"category":"TIENDAS","address":"ENTENCA10"},
  {"zone":"LANTIGA_ESQUERRA_DE_LEIXAMPLE","rating":10,"name":"LIFE","latitude":41.38673833,"longitude":2.15521932,"category":"TIENDAS","address":"VALENCIA70"},
  {"zone":"SANT_ANDREU","rating":2,"name":"EL_REBOST_DE_SANT_ANDREU","latitude":41.43740502,"longitude":2.18919754,"category":"TIENDAS","address":"GRAN_DE_SANT_ANDREU10"},
  {"zone":"LA_DRETA_DE_LEIXAMPLE","rating":10,"name":"MAS_Q_MENOS","latitude":41.39658998,"longitude":2.17372873,"category":"TIENDAS","address":"PG_SANT_JOAN10"},
  {"zone":"EL_RAVAL","rating":5,"name":"PELUQUERIA","latitude":41.38155025,"longitude":2.16658518,"category":"TIENDAS","address":"GUIFRE30"},
  {"zone":"LES_CORTS","rating":4,"name":"CA_NANDREU","latitude":41.3867401,"longitude":2.13470144,"category":"TIENDAS","address":"TRAV_CORTS40"},
  {"zone":"SANT_ANDREU","rating":2,"name":"CENTRE_DESTUDIS_IGNASI_IGLESIAS","latitude":41.43353513,"longitude":2.1881099,"category":"TIENDAS","address":"IGNASI_IGLESIAS10"},
  {"zone":"LANTIGA_ESQUERRA_DE_LEIXAMPLE","rating":10,"name":"JOIERIA_NEFER","latitude":41.39065096,"longitude":2.14908824,"category":"TIENDAS","address":"PARIS10"},
  {"zone":"EL_POBLENOU","rating":9,"name":"LESTANC_DE_LA_RAMBLA","latitude":41.40024896,"longitude":2.2021459,"category":"TIENDAS","address":"RBLA_POBLENOU20"},
  {"zone":"LA_SALUT","rating":7,"name":"SN","latitude":41.41361294,"longitude":2.16058508,"category":"TIENDAS","address":"PL_SANLLEHY20"},
  {"zone":"LA_DRETA_DE_LEIXAMPLE","rating":10,"name":"SUPERMARKET_URQUINAONA","latitude":41.38991176,"longitude":2.17329606,"category":"TIENDAS","address":"ROGER_DE_LLURIA20"},
  {"zone":"LANTIGA_ESQUERRA_DE_LEIXAMPLE","rating":10,"name":"SEMPRONIANA","latitude":41.39102956,"longitude":2.15451121,"category":"TIENDAS","address":"ROSSELLO10"},
  {"zone":"EL_RAVAL","rating":5,"name":"POLICIA_GUARDIA_URBANA","latitude":41.37958096,"longitude":2.17437297,"category":"TIENDAS","address":"RAMBLA10"},
  {"zone":"LA_DRETA_DE_LEIXAMPLE","rating":10,"name":"CAMPER","latitude":41.39271981,"longitude":2.16316402,"category":"TIENDAS","address":"VALENCIA20"},
  {"zone":"LANTIGA_ESQUERRA_DE_LEIXAMPLE","rating":10,"name":"BCNQUIROPRACTIC","latitude":41.39100843,"longitude":2.14480028,"category":"TIENDAS","address":"COMTE_BORRELL20"},
  {"zone":"VERDUN","rating":1,"name":"CALCATS_FERRERO","latitude":41.44392571,"longitude":2.17718661,"category":"TIENDAS","address":"VILADROSA10"},
  {"zone":"LANTIGA_ESQUERRA_DE_LEIXAMPLE","rating":10,"name":"SM_ESTUDIO","latitude":41.38793614,"longitude":2.1526249,"category":"TIENDAS","address":"PROVENCA10"},
  {"zone":"LANTIGA_ESQUERRA_DE_LEIXAMPLE","rating":10,"name":"LIFE","latitude":41.38673833,"longitude":2.15521932,"category":"TIENDAS","address":"VALENCIA70"},
  {"zone":"SANT_ANTONI","rating":10,"name":"PORTUARIA","latitude":41.37567743,"longitude":2.15828508,"category":"TIENDAS","address":"ROCAFORT10"},
  {"zone":"EL_POBLENOU","rating":9,"name":"BELSO","latitude":41.40525247,"longitude":2.20672712,"category":"TIENDAS","address":"BAC_DE_RODA10"},
  {"zone":"LA_DRETA_DE_LEIXAMPLE","rating":10,"name":"GRANJA_LA_SUISSA","latitude":41.39141188,"longitude":2.17371583,"category":"TIENDAS","address":"CASP40"},
  {"zone":"LA_DRETA_DE_LEIXAMPLE","rating":10,"name":"JUGUETERIA","latitude":41.396358,"longitude":2.170177,"category":"TIENDAS","address":"ARAGO10"},
  {"zone":"LA_DRETA_DE_LEIXAMPLE","rating":10,"name":"GRANJA_LA_SUISSA","latitude":41.39141188,"longitude":2.17371583,"category":"TIENDAS","address":"CASP40"},
  {"zone":"LA_DRETA_DE_LEIXAMPLE","rating":10,"name":"FEDERACIO_DE_MUTUALITATS_DE_CATALUNYA","latitude":41.39381278,"longitude":2.1704558,"category":"TIENDAS","address":"BRUC10"},
  {"zone":"LANTIGA_ESQUERRA_DE_LEIXAMPLE","rating":10,"name":"TAPISSERIA_EL_PASSATGE","latitude":41.39306311,"longitude":2.14937782,"category":"TIENDAS","address":"PTGE_LLUIS_PELLICER10"},
  {"zone":"EL_POBLENOU","rating":9,"name":"DIA_MARKET","latitude":41.40344787,"longitude":2.20692158,"category":"TIENDAS","address":"ESPRONCEDA20"},
  {"zone":"EL_RAVAL","rating":5,"name":"VERITAS_SUPERMERCATS","latitude":41.38272253,"longitude":2.16857538,"category":"TIENDAS","address":"DOCTOR_DOU10"},
  {"zone":"SANT_ANTONI","rating":10,"name":"QUIOSCO","latitude":41.37841063,"longitude":2.15878934,"category":"TIENDAS","address":"VILADOMAT10"},
  {"zone":"LANTIGA_ESQUERRA_DE_LEIXAMPLE","rating":10,"name":"LA_WERA","latitude":41.38510226,"longitude":2.15707943,"category":"TIENDAS","address":"VILLARROEL20"},
  {"zone":"SANT_ANTONI","rating":10,"name":"BAJAR_SEGONA_MA","latitude":41.37639597,"longitude":2.16448501,"category":"TIENDAS","address":"MARQUES_DE_CAMPO_SAGRADO20"},
  {"zone":"EL_POBLENOU","rating":9,"name":"BIKEXPRESS","latitude":41.40010337,"longitude":2.198353,"category":"TIENDAS","address":"PUJADES10"},
  {"zone":"LA_DRETA_DE_LEIXAMPLE","rating":10,"name":"NATUR_HOUSE","latitude":41.39768289,"longitude":2.17011437,"category":"TIENDAS","address":"VALENCIA10"},
  {"zone":"LA_DRETA_DE_LEIXAMPLE","rating":10,"name":"THE_PASSAGE","latitude":41.39450459,"longitude":2.16011435,"category":"TIENDAS","address":"PTGE_CONCEPCIO10"},
  {"zone":"LA_DRETA_DE_LEIXAMPLE","rating":10,"name":"THE_PASSAGE","latitude":41.39450459,"longitude":2.16011435,"category":"TIENDAS","address":"PTGE_CONCEPCIO10"},
  {"zone":"VILAPICINA_I_LA_TORRE_LLOBETA","rating":1,"name":"SN","latitude":41.427179,"longitude":2.171048,"category":"TIENDAS","address":"GRECO10"},
  {"zone":"LA_DRETA_DE_LEIXAMPLE","rating":10,"name":"EL_FORNET","latitude":41.39278951,"longitude":2.16597186,"category":"TIENDAS","address":"ARAGO10"},
  {"zone":"SANT_ANTONI","rating":10,"name":"XARCUTERIA_EL_JABALI_DE_RONDA","latitude":41.37561101,"longitude":2.16125295,"category":"TIENDAS","address":"PARLAMENT20"},
  {"zone":"LA_NOVA_ESQUERRA_DE_LEIXAMPLE","rating":10,"name":"CRUIX","latitude":41.37811697,"longitude":2.1523836,"category":"TIENDAS","address":"ENTENCA10"},
  {"zone":"VILAPICINA_I_LA_TORRE_LLOBETA","rating":1,"name":"SN","latitude":41.42617174,"longitude":2.17524737,"category":"TIENDAS","address":"CUBELLES20"},
  {"zone":"LA_DRETA_DE_LEIXAMPLE","rating":10,"name":"BONICA","latitude":41.39815448,"longitude":2.1731995,"category":"TIENDAS","address":"ARAGO30"},
  {"zone":"LA_DRETA_DE_LEIXAMPLE","rating":10,"name":"SUPERMARKET_URQUINAONA","latitude":41.38991176,"longitude":2.17329606,"category":"TIENDAS","address":"ROGER_DE_LLURIA20"},
  {"zone":"LA_DRETA_DE_LEIXAMPLE","rating":10,"name":"DIAGONAL_321_ADVOCATS","latitude":41.39913886,"longitude":2.17091106,"category":"TIENDAS","address":"AV_DIAGONAL10"},
  {"zone":"LA_MATERNITAT_I_SANT_RAMON","rating":4,"name":"PARTENAPEA","latitude":41.37742243,"longitude":2.11258292,"category":"TIENDAS","address":"PISUERGA20"},
  {"zone":"LA_DRETA_DE_LEIXAMPLE","rating":10,"name":"FEDERACIO_DE_MUTUALITATS_DE_CATALUNYA","latitude":41.39381278,"longitude":2.1704558,"category":"TIENDAS","address":"BRUC10"},
  {"zone":"LA_NOVA_ESQUERRA_DE_LEIXAMPLE","rating":10,"name":"FARMACIA_JORDI_DALMASES","latitude":41.38210671,"longitude":2.15132877,"category":"TIENDAS","address":"ARAGO20"},
  {"zone":"LA_DRETA_DE_LEIXAMPLE","rating":10,"name":"HUNGARYTO","latitude":41.397321,"longitude":2.171457,"category":"TIENDAS","address":"ARAGO10"},
  {"zone":"LA_NOVA_ESQUERRA_DE_LEIXAMPLE","rating":10,"name":"DRAHIGUERAS","latitude":41.38950326,"longitude":2.14575782,"category":"TIENDAS","address":"LONDRES10"},
  {"zone":"LA_DRETA_DE_LEIXAMPLE","rating":10,"name":"HUNGARYTO","latitude":41.397321,"longitude":2.171457,"category":"TIENDAS","address":"ARAGO10"},
  {"zone":"EL_POBLENOU","rating":9,"name":"ROLLERGRIND_360","latitude":41.40523739,"longitude":2.19781548,"category":"TIENDAS","address":"CASTELLA20"},
  {"zone":"EL_FORT_PIENC","rating":10,"name":"SN","latitude":41.40062418,"longitude":2.18412414,"category":"TIENDAS","address":"PADILLA10"},
  {"zone":"EL_POBLENOU","rating":9,"name":"BAR_WANG","latitude":41.4018424,"longitude":2.20110387,"category":"TIENDAS","address":"PUJADES20"},
  {"zone":"LA_DRETA_DE_LEIXAMPLE","rating":10,"name":"DIAGONAL_321_ADVOCATS","latitude":41.39913886,"longitude":2.17091106,"category":"TIENDAS","address":"AV_DIAGONAL10"},
  {"zone":"LA_DRETA_DE_LEIXAMPLE","rating":10,"name":"MAJORAL","latitude":41.3907398,"longitude":2.16542512,"category":"TIENDAS","address":"CONSELL_DE_CENT40"},
  {"zone":"NAVAS","rating":2,"name":"2_TORRES","latitude":41.41623392,"longitude":2.18659848,"category":"TIENDAS","address":"AV_MERIDIANA10"},
  {"zone":"EL_FORT_PIENC","rating":10,"name":"SN","latitude":41.39968058,"longitude":2.17843384,"category":"TIENDAS","address":"SARDENYA20"},
  {"zone":"EL_POBLENOU","rating":9,"name":"DIA_MARKET","latitude":41.40344787,"longitude":2.20692158,"category":"TIENDAS","address":"ESPRONCEDA20"},
  {"zone":"LA_DRETA_DE_LEIXAMPLE","rating":10,"name":"ABALONG","latitude":41.38971687,"longitude":2.17519494,"category":"TIENDAS","address":"RDA_SANT_PERE50"},
  {"zone":"LANTIGA_ESQUERRA_DE_LEIXAMPLE","rating":10,"name":"FUR_STYL","latitude":41.38960135,"longitude":2.15901802,"category":"TIENDAS","address":"VALENCIA20"},
  {"zone":"VALLCARCA_I_ELS_PENITENTS","rating":7,"name":"SN","latitude":41.4137276,"longitude":2.13939294,"category":"TIENDAS","address":"GOMIS10"},
  {"zone":"EL_RAVAL","rating":5,"name":"SN","latitude":41.38045341,"longitude":2.16784045,"category":"TIENDAS","address":"RIERA_BAIXA20"},
  {"zone":"EL_CLOT","rating":9,"name":"LA_LLUNA_DEL_DESCANS","latitude":41.40960585,"longitude":2.19422132,"category":"TIENDAS","address":"BILBAO20"},
  {"zone":"LA_DRETA_DE_LEIXAMPLE","rating":10,"name":"MUSEU_DEL_MODERNISME_CATALA","latitude":41.38883308,"longitude":2.16343864,"category":"TIENDAS","address":"BALMES10"},
  {"zone":"LA_DRETA_DE_LEIXAMPLE","rating":10,"name":"CINCO_JOTAS","latitude":41.39293621,"longitude":2.16063702,"category":"TIENDAS","address":"RBLA_CATALUNYA20"},
  {"zone":"EL_POBLENOU","rating":9,"name":"BAR_TU_Y_YO","latitude":41.40152653,"longitude":2.19683245,"category":"TIENDAS","address":"PERE_IV10"},
  {"zone":"LA_DRETA_DE_LEIXAMPLE","rating":10,"name":"BONICA","latitude":41.39815448,"longitude":2.1731995,"category":"TIENDAS","address":"ARAGO30"},
  {"zone":"EL_CAMP_DE_LARPA_DEL_CLOT","rating":9,"name":"PARQUETS_I_MOQUETES","latitude":41.41050807,"longitude":2.18057156,"category":"TIENDAS","address":"ROSSELLO10"},
  {"zone":"EL_FORT_PIENC","rating":10,"name":"CA2L_LUXOMETER","latitude":41.39268661,"longitude":2.17987284,"category":"TIENDAS","address":"ALI_BEI20"},
  {"zone":"LA_DRETA_DE_LEIXAMPLE","rating":10,"name":"DIAGONAL_321_ADVOCATS","latitude":41.39913886,"longitude":2.17091106,"category":"TIENDAS","address":"AV_DIAGONAL10"},
  {"zone":"LANTIGA_ESQUERRA_DE_LEIXAMPLE","rating":10,"name":"NAILS_FACTORY","latitude":41.39051342,"longitude":2.16068432,"category":"TIENDAS","address":"VALENCIA20"},
  {"zone":"LANTIGA_ESQUERRA_DE_LEIXAMPLE","rating":10,"name":"FUR_STYL","latitude":41.38960135,"longitude":2.15901802,"category":"TIENDAS","address":"VALENCIA20"},
  {"zone":"LA_DRETA_DE_LEIXAMPLE","rating":10,"name":"DIAGONAL_321_ADVOCATS","latitude":41.39913886,"longitude":2.17091106,"category":"TIENDAS","address":"AV_DIAGONAL10"},
  {"zone":"LA_DRETA_DE_LEIXAMPLE","rating":10,"name":"THE_PASSAGE","latitude":41.39450459,"longitude":2.16011435,"category":"TIENDAS","address":"PTGE_CONCEPCIO10"},
  {"zone":"LA_DRETA_DE_LEIXAMPLE","rating":10,"name":"ABALONG","latitude":41.38971687,"longitude":2.17519494,"category":"TIENDAS","address":"RDA_SANT_PERE50"},
  {"zone":"LA_DRETA_DE_LEIXAMPLE","rating":10,"name":"AMSERMAN","latitude":41.396577,"longitude":2.170466,"category":"TIENDAS","address":"ARAGO10"},
  {"zone":"LA_DRETA_DE_LEIXAMPLE","rating":10,"name":"HUNGARYTO","latitude":41.397321,"longitude":2.171457,"category":"TIENDAS","address":"ARAGO10"},
  {"zone":"LA_DRETA_DE_LEIXAMPLE","rating":10,"name":"YAMATO_TRANSPORT","latitude":41.39017436,"longitude":2.16167808,"category":"TIENDAS","address":"BALMES20"},
  {"zone":"LA_SALUT","rating":7,"name":"SN","latitude":41.41361294,"longitude":2.16058508,"category":"TIENDAS","address":"PL_SANLLEHY20"},
  {"zone":"LANTIGA_ESQUERRA_DE_LEIXAMPLE","rating":10,"name":"FUTAMI","latitude":41.38856411,"longitude":2.16153465,"category":"TIENDAS","address":"ENRIC_GRANADOS30"},
  {"zone":"LA_DRETA_DE_LEIXAMPLE","rating":10,"name":"MUJI","latitude":41.39205981,"longitude":2.16183364,"category":"TIENDAS","address":"RBLA_CATALUNYA10"},
  {"zone":"VILAPICINA_I_LA_TORRE_LLOBETA","rating":1,"name":"SN","latitude":41.42810241,"longitude":2.1785599,"category":"TIENDAS","address":"RIERA_DHORTA40"},
  {"zone":"EL_POBLENOU","rating":9,"name":"LLIBRERIA_ARXI_PAPER","latitude":41.40472538,"longitude":2.20452636,"category":"TIENDAS","address":"PUJADES10"},
  {"zone":"LA_BARCELONETA","rating":5,"name":"LA_FRESCA","latitude":41.38054297,"longitude":2.18807906,"category":"TIENDAS","address":"LA_MAQUINISTA10"},
  {"zone":"LA_DRETA_DE_LEIXAMPLE","rating":10,"name":"NATUR_HOUSE","latitude":41.39768289,"longitude":2.17011437,"category":"TIENDAS","address":"VALENCIA10"},
  {"zone":"LES_CORTS","rating":4,"name":"SN","latitude":41.39155676,"longitude":2.14148641,"category":"TIENDAS","address":"AV_DIAGONAL10"},
  {"zone":"LA_NOVA_ESQUERRA_DE_LEIXAMPLE","rating":10,"name":"ENTREPANS","latitude":41.38444015,"longitude":2.14576164,"category":"TIENDAS","address":"ROSSELLO10"},
  {"zone":"LA_DRETA_DE_LEIXAMPLE","rating":10,"name":"MAS_Q_MENOS","latitude":41.39658998,"longitude":2.17372873,"category":"TIENDAS","address":"PG_SANT_JOAN10"},
  {"zone":"EL_FORT_PIENC","rating":10,"name":"SN","latitude":41.39968058,"longitude":2.17843384,"category":"TIENDAS","address":"SARDENYA20"},
  {"zone":"LANTIGA_ESQUERRA_DE_LEIXAMPLE","rating":10,"name":"SEMPRONIANA","latitude":41.39102956,"longitude":2.15451121,"category":"TIENDAS","address":"ROSSELLO10"},
  {"zone":"EL_RAVAL","rating":5,"name":"LUCAS","latitude":41.3819598,"longitude":2.17069164,"category":"TIENDAS","address":"PTGE_VIRREINA10"},
  {"zone":"LA_DRETA_DE_LEIXAMPLE","rating":10,"name":"HUNGARYTO","latitude":41.397321,"longitude":2.171457,"category":"TIENDAS","address":"ARAGO10"},
  {"zone":"LA_NOVA_ESQUERRA_DE_LEIXAMPLE","rating":10,"name":"RESTAURANT_LA_GIRALDILLA","latitude":41.38232406,"longitude":2.14522004,"category":"TIENDAS","address":"PROVENCA10"},
  {"zone":"EL_PARC_I_LA_LLACUNA_DEL_POBLENOU","rating":9,"name":"DISTRICTE_SANT_MARTI","latitude":41.39170901,"longitude":2.18460423,"category":"TIENDAS","address":"BUENAVENTURA_MUNOZ10"},
  {"zone":"EL_FORT_PIENC","rating":10,"name":"MON_VIU","latitude":41.39365145,"longitude":2.17848614,"category":"TIENDAS","address":"AUSIAS_MARC10"},
  {"zone":"SANT_ANTONI","rating":10,"name":"PANQA","latitude":41.37830799,"longitude":2.15617016,"category":"TIENDAS","address":"SEPULVEDA10"},
  {"zone":"VERDUN","rating":1,"name":"SPORTIUM_APOSTES_ESPORTIVES","latitude":41.44451481,"longitude":2.17842445,"category":"TIENDAS","address":"JOAQUIM_VALLS10"},
  {"zone":"LA_DRETA_DE_LEIXAMPLE","rating":10,"name":"YAMATO_TRANSPORT","latitude":41.39017436,"longitude":2.16167808,"category":"TIENDAS","address":"BALMES20"},
  {"zone":"LA_DRETA_DE_LEIXAMPLE","rating":10,"name":"SUPERMERCAT_PELAI","latitude":41.38585792,"longitude":2.16660663,"category":"TIENDAS","address":"PELAI50"},
  {"zone":"LA_DRETA_DE_LEIXAMPLE","rating":10,"name":"VIAJES_SANHE","latitude":41.3908877,"longitude":2.178348,"category":"TIENDAS","address":"RDA_SANT_PERE30"},
  {"zone":"SANT_ANTONI","rating":10,"name":"PANQA","latitude":41.37830799,"longitude":2.15617016,"category":"TIENDAS","address":"SEPULVEDA10"},
  {"zone":"LANTIGA_ESQUERRA_DE_LEIXAMPLE","rating":10,"name":"BCNQUIROPRACTIC","latitude":41.39100843,"longitude":2.14480028,"category":"TIENDAS","address":"COMTE_BORRELL20"},
  {"zone":"SANT_ANDREU","rating":2,"name":"MARRECS_ANIMAL_DE_COMPANYIA","latitude":41.43594115,"longitude":2.19240546,"category":"TIENDAS","address":"PL_ESTACIO20"},
  {"zone":"LA_DRETA_DE_LEIXAMPLE","rating":10,"name":"AMSERMAN","latitude":41.396577,"longitude":2.170466,"category":"TIENDAS","address":"ARAGO10"},
  {"zone":"NAVAS","rating":2,"name":"JC_SOLUTIONS_S.L","latitude":41.41924399,"longitude":2.18300298,"category":"TIENDAS","address":"JUAN_DE_GARAY80"},
  {"zone":"LA_DRETA_DE_LEIXAMPLE","rating":10,"name":"SUPERMARKET_URQUINAONA","latitude":41.38991176,"longitude":2.17329606,"category":"TIENDAS","address":"ROGER_DE_LLURIA20"},
  {"zone":"LA_DRETA_DE_LEIXAMPLE","rating":10,"name":"MUSEU_DEL_MODERNISME_CATALA","latitude":41.38883308,"longitude":2.16343864,"category":"TIENDAS","address":"BALMES10"},
  {"zone":"VILAPICINA_I_LA_TORRE_LLOBETA","rating":1,"name":"ENGLISH_CENTER","latitude":41.428754,"longitude":2.18287557,"category":"TIENDAS","address":"ESCOCIA30"},
  {"zone":"SANT_ANTONI","rating":10,"name":"SN","latitude":41.3791418,"longitude":2.15693099,"category":"TIENDAS","address":"SEPULVEDA20"},
  {"zone":"EL_RAVAL","rating":5,"name":"POLICIA_GUARDIA_URBANA","latitude":41.37958096,"longitude":2.17437297,"category":"TIENDAS","address":"RAMBLA10"},
  {"zone":"LA_DRETA_DE_LEIXAMPLE","rating":10,"name":"EL_FORNET","latitude":41.39278951,"longitude":2.16597186,"category":"TIENDAS","address":"ARAGO10"},
  {"zone":"LA_DRETA_DE_LEIXAMPLE","rating":10,"name":"LAMPISTERIA_J._JURJO_S.L","latitude":41.40233074,"longitude":2.169494,"category":"TIENDAS","address":"ROSSELLO10"},
  {"zone":"EL_CLOT","rating":9,"name":"SN","latitude":41.40649776,"longitude":2.18900174,"category":"TIENDAS","address":"ESCULTORS_CLAPEROS20"},
  {"zone":"SANT_ANTONI","rating":10,"name":"LIA_XIAN","latitude":41.37516791,"longitude":2.16465905,"category":"TIENDAS","address":"AV_PARAL*LEL10"},
  {"zone":"LA_DRETA_DE_LEIXAMPLE","rating":10,"name":"DIAGONAL_321_ADVOCATS","latitude":41.39913886,"longitude":2.17091106,"category":"TIENDAS","address":"AV_DIAGONAL10"},
  {"zone":"LANTIGA_ESQUERRA_DE_LEIXAMPLE","rating":10,"name":"AUSTRALIAN_GOLD","latitude":41.38942826,"longitude":2.15814171,"category":"TIENDAS","address":"ARIBAU10"},
  {"zone":"LA_DRETA_DE_LEIXAMPLE","rating":10,"name":"DIAGONAL_321_ADVOCATS","latitude":41.39913886,"longitude":2.17091106,"category":"TIENDAS","address":"AV_DIAGONAL10"},
  {"zone":"SANT_ANDREU","rating":2,"name":"NATI","latitude":41.43425302,"longitude":2.18791813,"category":"TIENDAS","address":"RUBEN_DARIO20"},
  {"zone":"VALLCARCA_I_ELS_PENITENTS","rating":7,"name":"SN","latitude":41.41247441,"longitude":2.14110285,"category":"TIENDAS","address":"GOMIS10"},
  {"zone":"LA_DRETA_DE_LEIXAMPLE","rating":10,"name":"MUJI","latitude":41.39205981,"longitude":2.16183364,"category":"TIENDAS","address":"RBLA_CATALUNYA10"},
  {"zone":"LA_DRETA_DE_LEIXAMPLE","rating":10,"name":"BONICA","latitude":41.39815448,"longitude":2.1731995,"category":"TIENDAS","address":"ARAGO30"},
  {"zone":"LANTIGA_ESQUERRA_DE_LEIXAMPLE","rating":10,"name":"TAPISSERIA_EL_PASSATGE","latitude":41.39306311,"longitude":2.14937782,"category":"TIENDAS","address":"PTGE_LLUIS_PELLICER10"},
  {"zone":"LA_DRETA_DE_LEIXAMPLE","rating":10,"name":"YAMATO_TRANSPORT","latitude":41.39017436,"longitude":2.16167808,"category":"TIENDAS","address":"BALMES20"},
  {"zone":"EL_POBLENOU","rating":9,"name":"TECNIVERT","latitude":41.40297597,"longitude":2.20222422,"category":"TIENDAS","address":"PUJADES10"},
  {"zone":"EL_FORT_PIENC","rating":10,"name":"SN","latitude":41.39968058,"longitude":2.17843384,"category":"TIENDAS","address":"SARDENYA20"},
  {"zone":"LA_DRETA_DE_LEIXAMPLE","rating":10,"name":"LAMPISTERIA_J._JURJO_S.L","latitude":41.40233074,"longitude":2.169494,"category":"TIENDAS","address":"ROSSELLO10"},
  {"zone":"LA_DRETA_DE_LEIXAMPLE","rating":10,"name":"LAMPISTERIA_J._JURJO_S.L","latitude":41.40233074,"longitude":2.169494,"category":"TIENDAS","address":"ROSSELLO10"},
  {"zone":"LA_DRETA_DE_LEIXAMPLE","rating":10,"name":"SUPERMARKET_URQUINAONA","latitude":41.38991176,"longitude":2.17329606,"category":"TIENDAS","address":"ROGER_DE_LLURIA20"},
  {"zone":"LA_DRETA_DE_LEIXAMPLE","rating":10,"name":"MAS_Q_MENOS","latitude":41.39658998,"longitude":2.17372873,"category":"TIENDAS","address":"PG_SANT_JOAN10"},
  {"zone":"LA_DRETA_DE_LEIXAMPLE","rating":10,"name":"MAS_Q_MENOS","latitude":41.39658998,"longitude":2.17372873,"category":"TIENDAS","address":"PG_SANT_JOAN10"},
  {"zone":"LA_DRETA_DE_LEIXAMPLE","rating":10,"name":"JUGUETERIA","latitude":41.396358,"longitude":2.170177,"category":"TIENDAS","address":"ARAGO10"},
  {"zone":"EL_FORT_PIENC","rating":10,"name":"GRUPO_TODOPLANO","latitude":41.39551065,"longitude":2.17718661,"category":"TIENDAS","address":"ROGER_DE_FLOR10"},
  {"zone":"VILAPICINA_I_LA_TORRE_LLOBETA","rating":1,"name":"SN","latitude":41.427179,"longitude":2.171048,"category":"TIENDAS","address":"GRECO10"},
  {"zone":"LES_CORTS","rating":4,"name":"GRACIA_ARIAS","latitude":41.38935838,"longitude":2.13789761,"category":"TIENDAS","address":"TAQUIGRAF_GARRIGA40"},
  {"zone":"EL_POBLENOU","rating":9,"name":"BROOMX","latitude":41.3987223,"longitude":2.19548516,"category":"TIENDAS","address":"BADAJOZ10"},
  {"zone":"LA_BARCELONETA","rating":5,"name":"KITCHEN","latitude":41.3805802,"longitude":2.18823865,"category":"TIENDAS","address":"LA_MAQUINISTA20"},
  {"zone":"LA_DRETA_DE_LEIXAMPLE","rating":10,"name":"SUPERMARKET_URQUINAONA","latitude":41.38991176,"longitude":2.17329606,"category":"TIENDAS","address":"ROGER_DE_LLURIA20"},
  {"zone":"LA_NOVA_ESQUERRA_DE_LEIXAMPLE","rating":10,"name":"CRUIX","latitude":41.37811697,"longitude":2.1523836,"category":"TIENDAS","address":"ENTENCA10"},
  {"zone":"LA_DRETA_DE_LEIXAMPLE","rating":10,"name":"MUJI","latitude":41.39205981,"longitude":2.16183364,"category":"TIENDAS","address":"RBLA_CATALUNYA10"},
  {"zone":"LANTIGA_ESQUERRA_DE_LEIXAMPLE","rating":10,"name":"CAPRABO","latitude":41.39310067,"longitude":2.15328188,"category":"TIENDAS","address":"ARIBAU10"},
  {"zone":"LANTIGA_ESQUERRA_DE_LEIXAMPLE","rating":10,"name":"BROMPTON","latitude":41.38437879,"longitude":2.15925068,"category":"TIENDAS","address":"DIPUTACIO10"},
  {"zone":"SANT_ANTONI","rating":10,"name":"LIA_XIAN","latitude":41.37516791,"longitude":2.16465905,"category":"TIENDAS","address":"AV_PARAL*LEL10"},
  {"zone":"EL_POBLENOU","rating":9,"name":"LLIBRERIA_ARXI_PAPER","latitude":41.40472538,"longitude":2.20452636,"category":"TIENDAS","address":"PUJADES10"},
  {"zone":"LA_DRETA_DE_LEIXAMPLE","rating":10,"name":"LA_TASCA_DOR","latitude":41.39951962,"longitude":2.16735765,"category":"TIENDAS","address":"BAILEN10"},
  {"zone":"LES_CORTS","rating":4,"name":"CARACTER_JAVIER_PABLOS","latitude":41.38935288,"longitude":2.13755482,"category":"TIENDAS","address":"DEU_I_MATA30"},
  {"zone":"LA_VERNEDA_I_LA_PAU","rating":9,"name":"MIS_UNAS","latitude":41.424362,"longitude":2.202567,"category":"TIENDAS","address":"RBLA_PRIM50"},
  {"zone":"LA_DRETA_DE_LEIXAMPLE","rating":10,"name":"NATUR_HOUSE","latitude":41.39768289,"longitude":2.17011437,"category":"TIENDAS","address":"VALENCIA10"},
  {"zone":"LA_DRETA_DE_LEIXAMPLE","rating":10,"name":"BONICA","latitude":41.39815448,"longitude":2.1731995,"category":"TIENDAS","address":"ARAGO30"},
  {"zone":"EL_FORT_PIENC","rating":10,"name":"HOTEL_EUROSTARS_MONUMENTAL","latitude":41.40059803,"longitude":2.17869535,"category":"TIENDAS","address":"MARINA10"},
  {"zone":"LANTIGA_ESQUERRA_DE_LEIXAMPLE","rating":10,"name":"JOIERIA_NEFER","latitude":41.39065096,"longitude":2.14908824,"category":"TIENDAS","address":"PARIS10"},
  {"zone":"SANT_ANTONI","rating":10,"name":"PANQA","latitude":41.37830799,"longitude":2.15617016,"category":"TIENDAS","address":"SEPULVEDA10"},
  {"zone":"LA_NOVA_ESQUERRA_DE_LEIXAMPLE","rating":10,"name":"BONIQUES","latitude":41.3867333,"longitude":2.14614674,"category":"TIENDAS","address":"CORSEGA20"},
  {"zone":"LA_DRETA_DE_LEIXAMPLE","rating":10,"name":"JUGUETERIA","latitude":41.396358,"longitude":2.170177,"category":"TIENDAS","address":"ARAGO10"},
  {"zone":"LA_DRETA_DE_LEIXAMPLE","rating":10,"name":"JUGUETERIA","latitude":41.396358,"longitude":2.170177,"category":"TIENDAS","address":"ARAGO10"},
  {"zone":"LES_CORTS","rating":4,"name":"CLUB_VELERS_COLLSEROLA","latitude":41.38440194,"longitude":2.12982818,"category":"TIENDAS","address":"DOCTOR_NUBIOLA_I_ESPINOS40"},
  {"zone":"VILAPICINA_I_LA_TORRE_LLOBETA","rating":1,"name":"SN","latitude":41.42856798,"longitude":2.17875302,"category":"TIENDAS","address":"ESCOCIA20"},
  {"zone":"EL_POBLENOU","rating":9,"name":"SCHINDLER","latitude":41.40142694,"longitude":2.19873816,"category":"TIENDAS","address":"LLACUNA10"},
  {"zone":"LA_NOVA_ESQUERRA_DE_LEIXAMPLE","rating":10,"name":"PYPA_PRINT","latitude":41.38002812,"longitude":2.14892565,"category":"TIENDAS","address":"ARAGO10"},
  {"zone":"EL_RAVAL","rating":5,"name":"METGES_SENSE_FRONTERES","latitude":41.37834724,"longitude":2.17340335,"category":"TIENDAS","address":"NOU_DE_LA_RAMBLA10"},
  {"zone":"SANT_ANTONI","rating":10,"name":"PANQA","latitude":41.37830799,"longitude":2.15617016,"category":"TIENDAS","address":"SEPULVEDA10"},
  {"zone":"LANTIGA_ESQUERRA_DE_LEIXAMPLE","rating":10,"name":"SEMPRONIANA","latitude":41.39102956,"longitude":2.15451121,"category":"TIENDAS","address":"ROSSELLO10"},
  {"zone":"LA_DRETA_DE_LEIXAMPLE","rating":10,"name":"BONICA","latitude":41.39815448,"longitude":2.1731995,"category":"TIENDAS","address":"ARAGO30"},
  {"zone":"LANTIGA_ESQUERRA_DE_LEIXAMPLE","rating":10,"name":"LLOGUER_SEGUR","latitude":41.3895576,"longitude":2.16212064,"category":"TIENDAS","address":"BALMES10"},
  {"zone":"LA_DRETA_DE_LEIXAMPLE","rating":10,"name":"MAJORAL","latitude":41.3907398,"longitude":2.16542512,"category":"TIENDAS","address":"CONSELL_DE_CENT40"},
  {"zone":"LA_DRETA_DE_LEIXAMPLE","rating":10,"name":"MUSEU_DEL_MODERNISME_CATALA","latitude":41.38883308,"longitude":2.16343864,"category":"TIENDAS","address":"BALMES10"},
  {"zone":"LA_SALUT","rating":7,"name":"SPELTA","latitude":41.40880401,"longitude":2.1505938,"category":"TIENDAS","address":"MAIGNON10"},
  {"zone":"LA_DRETA_DE_LEIXAMPLE","rating":10,"name":"HUNGARYTO","latitude":41.397321,"longitude":2.171457,"category":"TIENDAS","address":"ARAGO10"},
  {"zone":"EL_CLOT","rating":9,"name":"MS_&_LB","latitude":41.4113097,"longitude":2.19282925,"category":"TIENDAS","address":"CONCILI_DE_TRENTO30"},
  {"zone":"PEDRALBES","rating":4,"name":"CASA_DE_CANTABRIA","latitude":41.39079614,"longitude":2.11329103,"category":"TIENDAS","address":"SOR_EULALIA_DANZIZU10"},
  {"zone":"SANT_ANTONI","rating":10,"name":"FOXLIVE","latitude":41.38312643,"longitude":2.16196167,"category":"TIENDAS","address":"CASANOVA10"},
  {"zone":"LANTIGA_ESQUERRA_DE_LEIXAMPLE","rating":10,"name":"BCNQUIROPRACTIC","latitude":41.39100843,"longitude":2.14480028,"category":"TIENDAS","address":"COMTE_BORRELL20"},
  {"zone":"NAVAS","rating":2,"name":"ANDMAR","latitude":41.41779278,"longitude":2.18059033,"category":"TIENDAS","address":"JUAN_DE_GARAY40"},
  {"zone":"LA_DRETA_DE_LEIXAMPLE","rating":10,"name":"SUPERMERCAT_PELAI","latitude":41.38585792,"longitude":2.16660663,"category":"TIENDAS","address":"PELAI50"},
  {"zone":"LA_DRETA_DE_LEIXAMPLE","rating":10,"name":"SANTANDER","latitude":41.39217847,"longitude":2.17484188,"category":"TIENDAS","address":"GIRONA20"},
  {"zone":"SANT_ANTONI","rating":10,"name":"FOXLIVE","latitude":41.38312643,"longitude":2.16196167,"category":"TIENDAS","address":"CASANOVA10"},
  {"zone":"LANTIGA_ESQUERRA_DE_LEIXAMPLE","rating":10,"name":"CAFETERIA_HABANA","latitude":41.3886259,"longitude":2.15989843,"category":"TIENDAS","address":"ARAGO10"},
  {"zone":"SANT_ANDREU","rating":2,"name":"GARONE","latitude":41.43472726,"longitude":2.1890241,"category":"TIENDAS","address":"MERCAT10"},
  {"zone":"LANTIGA_ESQUERRA_DE_LEIXAMPLE","rating":10,"name":"BCNQUIROPRACTIC","latitude":41.39100843,"longitude":2.14480028,"category":"TIENDAS","address":"COMTE_BORRELL20"},
  {"zone":"LANTIGA_ESQUERRA_DE_LEIXAMPLE","rating":10,"name":"RESTAURANT_PAMPLONA","latitude":41.39287173,"longitude":2.1501781,"category":"TIENDAS","address":"LONDRES10"},
  {"zone":"LA_NOVA_ESQUERRA_DE_LEIXAMPLE","rating":10,"name":"RESTAURANT_LA_GIRALDILLA","latitude":41.38232406,"longitude":2.14522004,"category":"TIENDAS","address":"PROVENCA10"},
  {"zone":"LA_DRETA_DE_LEIXAMPLE","rating":10,"name":"AMSERMAN","latitude":41.396577,"longitude":2.170466,"category":"TIENDAS","address":"ARAGO10"},
  {"zone":"EL_POBLENOU","rating":9,"name":"BELSO","latitude":41.40525247,"longitude":2.20672712,"category":"TIENDAS","address":"BAC_DE_RODA10"},
  {"zone":"LA_DRETA_DE_LEIXAMPLE","rating":10,"name":"J._PORTE_SLU","latitude":41.39644828,"longitude":2.17143327,"category":"TIENDAS","address":"BAILEN80"},
  {"zone":"LES_CORTS","rating":4,"name":"FARMACIA","latitude":41.39159701,"longitude":2.14367911,"category":"TIENDAS","address":"AV_JOSEP_TARRADELLAS30"},
  {"zone":"LA_DRETA_DE_LEIXAMPLE","rating":10,"name":"GRANJA_LA_SUISSA","latitude":41.39141188,"longitude":2.17371583,"category":"TIENDAS","address":"CASP40"},
  {"zone":"LA_DRETA_DE_LEIXAMPLE","rating":10,"name":"CAMPER","latitude":41.39271981,"longitude":2.16316402,"category":"TIENDAS","address":"VALENCIA20"},
  {"zone":"LA_DRETA_DE_LEIXAMPLE","rating":10,"name":"ABALONG","latitude":41.38971687,"longitude":2.17519494,"category":"TIENDAS","address":"RDA_SANT_PERE50"},
  {"zone":"LA_DRETA_DE_LEIXAMPLE","rating":10,"name":"YAMATO_TRANSPORT","latitude":41.39017436,"longitude":2.16167808,"category":"TIENDAS","address":"BALMES20"},
  {"zone":"LES_CORTS","rating":4,"name":"CA_NANDREU","latitude":41.3867401,"longitude":2.13470144,"category":"TIENDAS","address":"TRAV_CORTS40"},
  {"zone":"LA_DRETA_DE_LEIXAMPLE","rating":10,"name":"NEBRASKA","latitude":41.40053465,"longitude":2.17055216,"category":"TIENDAS","address":"ROGER_DE_FLOR20"},
  {"zone":"LANTIGA_ESQUERRA_DE_LEIXAMPLE","rating":10,"name":"LA_CASA_DE_LES_CLAUS","latitude":41.3859032,"longitude":2.15398952,"category":"TIENDAS","address":"VALENCIA20"},
  {"zone":"LA_DRETA_DE_LEIXAMPLE","rating":10,"name":"THE_PASSAGE","latitude":41.39450459,"longitude":2.16011435,"category":"TIENDAS","address":"PTGE_CONCEPCIO10"},
  {"zone":"LANTIGA_ESQUERRA_DE_LEIXAMPLE","rating":10,"name":"SA_VIQS","latitude":41.38880902,"longitude":2.15626672,"category":"TIENDAS","address":"MUNTANER20"},
  {"zone":"LA_DRETA_DE_LEIXAMPLE","rating":10,"name":"JUGUETERIA","latitude":41.396358,"longitude":2.170177,"category":"TIENDAS","address":"ARAGO10"},
  {"zone":"EL_POBLENOU","rating":9,"name":"BELSO","latitude":41.40525247,"longitude":2.20672712,"category":"TIENDAS","address":"BAC_DE_RODA10"},
  {"zone":"LA_DRETA_DE_LEIXAMPLE","rating":10,"name":"SUPERMARKET_URQUINAONA","latitude":41.38991176,"longitude":2.17329606,"category":"TIENDAS","address":"ROGER_DE_LLURIA20"},
  {"zone":"LA_DRETA_DE_LEIXAMPLE","rating":10,"name":"NATUR_HOUSE","latitude":41.39768289,"longitude":2.17011437,"category":"TIENDAS","address":"VALENCIA10"},
  {"zone":"LA_NOVA_ESQUERRA_DE_LEIXAMPLE","rating":10,"name":"DRAHIGUERAS","latitude":41.38950326,"longitude":2.14575782,"category":"TIENDAS","address":"LONDRES10"},
  {"zone":"NAVAS","rating":2,"name":"ANDMAR","latitude":41.41779278,"longitude":2.18059033,"category":"TIENDAS","address":"JUAN_DE_GARAY40"},
  {"zone":"LA_NOVA_ESQUERRA_DE_LEIXAMPLE","rating":10,"name":"AUTO_EXCLUSIVE","latitude":41.38357373,"longitude":2.14650207,"category":"TIENDAS","address":"PROVENCA10"},
  {"zone":"LA_DRETA_DE_LEIXAMPLE","rating":10,"name":"FEDERACIO_DE_MUTUALITATS_DE_CATALUNYA","latitude":41.39381278,"longitude":2.1704558,"category":"TIENDAS","address":"BRUC10"},
  {"zone":"SANT_ANTONI","rating":10,"name":"XARCUTERIA_EL_JABALI_DE_RONDA","latitude":41.37561101,"longitude":2.16125295,"category":"TIENDAS","address":"PARLAMENT20"},
  {"zone":"LA_DRETA_DE_LEIXAMPLE","rating":10,"name":"MUJI","latitude":41.39205981,"longitude":2.16183364,"category":"TIENDAS","address":"RBLA_CATALUNYA10"},
  {"zone":"LA_DRETA_DE_LEIXAMPLE","rating":10,"name":"SANTANDER","latitude":41.39217847,"longitude":2.17484188,"category":"TIENDAS","address":"GIRONA20"},
  {"zone":"LA_DRETA_DE_LEIXAMPLE","rating":10,"name":"YAMATO_TRANSPORT","latitude":41.39017436,"longitude":2.16167808,"category":"TIENDAS","address":"BALMES20"},
  {"zone":"LANTIGA_ESQUERRA_DE_LEIXAMPLE","rating":10,"name":"MANDALA","latitude":41.38377539,"longitude":2.15806591,"category":"TIENDAS","address":"DIPUTACIO10"},
  {"zone":"EL_CLOT","rating":9,"name":"IAIA_CELIA","latitude":41.40942178,"longitude":2.18833521,"category":"TIENDAS","address":"ARAGO20"},
  {"zone":"LA_MATERNITAT_I_SANT_RAMON","rating":4,"name":"CLINICA_DENTAL_DRES._MORAL","latitude":41.38170723,"longitude":2.12745979,"category":"TIENDAS","address":"TRAV_CORTS20"},
  {"zone":"LA_DRETA_DE_LEIXAMPLE","rating":10,"name":"SANTANDER","latitude":41.39217847,"longitude":2.17484188,"category":"TIENDAS","address":"GIRONA20"},
  {"zone":"LES_CORTS","rating":4,"name":"TIKAI","latitude":41.3866186,"longitude":2.13103518,"category":"TIENDAS","address":"GALILEU20"},
  {"zone":"VILAPICINA_I_LA_TORRE_LLOBETA","rating":1,"name":"SN","latitude":41.42856798,"longitude":2.17875302,"category":"TIENDAS","address":"ESCOCIA20"},
  {"zone":"LANTIGA_ESQUERRA_DE_LEIXAMPLE","rating":10,"name":"RESTAURANT_PAMPLONA","latitude":41.39287173,"longitude":2.1501781,"category":"TIENDAS","address":"LONDRES10"},
  {"zone":"EL_FORT_PIENC","rating":10,"name":"MICROFUSION_SOLSONA_S.L","latitude":41.39956187,"longitude":2.17820451,"category":"TIENDAS","address":"SARDENYA10"},
  {"zone":"LA_DRETA_DE_LEIXAMPLE","rating":10,"name":"HUNGARYTO","latitude":41.397321,"longitude":2.171457,"category":"TIENDAS","address":"ARAGO10"},
  {"zone":"LES_CORTS","rating":4,"name":"MANGLE","latitude":41.38659003,"longitude":2.13517725,"category":"TIENDAS","address":"TRAV_CORTS10"},
  {"zone":"SANT_ANTONI","rating":10,"name":"RESTAURANT_AUGUST","latitude":41.37561117,"longitude":2.16692106,"category":"TIENDAS","address":"RDA_SANT_PAU10"},
  {"zone":"LA_DRETA_DE_LEIXAMPLE","rating":10,"name":"MAJORAL","latitude":41.3907398,"longitude":2.16542512,"category":"TIENDAS","address":"CONSELL_DE_CENT40"},
  {"zone":"LA_NOVA_ESQUERRA_DE_LEIXAMPLE","rating":10,"name":"AUTO_EXCLUSIVE","latitude":41.38357373,"longitude":2.14650207,"category":"TIENDAS","address":"PROVENCA10"},
  {"zone":"EL_POBLENOU","rating":9,"name":"MARCEL","latitude":41.4004924,"longitude":2.2053887,"category":"TIENDAS","address":"CASTANYS10"},
  {"zone":"EL_POBLENOU","rating":9,"name":"THE_MIDDLEMANS","latitude":41.39658208,"longitude":2.19963402,"category":"TIENDAS","address":"PTGE_MAS_DE_RODA10"},
  {"zone":"SANT_ANTONI","rating":10,"name":"PALLAROL","latitude":41.37755023,"longitude":2.15706199,"category":"TIENDAS","address":"FLORIDABLANCA10"},
  {"zone":"LA_DRETA_DE_LEIXAMPLE","rating":10,"name":"SN","latitude":41.39699053,"longitude":2.17373729,"category":"TIENDAS","address":"CONSELL_DE_CENT20"},
  {"zone":"LA_DRETA_DE_LEIXAMPLE","rating":10,"name":"LA_TASCA_DOR","latitude":41.39951962,"longitude":2.16735765,"category":"TIENDAS","address":"BAILEN10"},
  {"zone":"EL_RAVAL","rating":5,"name":"COMESTIBLES","latitude":41.37734393,"longitude":2.16653824,"category":"TIENDAS","address":"REINA_AMALIA10"},
  {"zone":"LA_DRETA_DE_LEIXAMPLE","rating":10,"name":"AMSERMAN","latitude":41.396577,"longitude":2.170466,"category":"TIENDAS","address":"ARAGO10"},
  {"zone":"EL_FORT_PIENC","rating":10,"name":"ARA_MOTOS","latitude":41.39563439,"longitude":2.17874363,"category":"TIENDAS","address":"CASP30"},
  {"zone":"EL_RAVAL","rating":5,"name":"RAVAL_REBEL","latitude":41.3806436,"longitude":2.16536745,"category":"TIENDAS","address":"SANT_VICENC10"},
  {"zone":"LANTIGA_ESQUERRA_DE_LEIXAMPLE","rating":10,"name":"SEMPRONIANA","latitude":41.39102956,"longitude":2.15451121,"category":"TIENDAS","address":"ROSSELLO10"},
  {"zone":"EL_CLOT","rating":9,"name":"EXP_NUM_166","latitude":41.41289985,"longitude":2.1943742,"category":"TIENDAS","address":"ESPRONCEDA100"},
  {"zone":"LA_DRETA_DE_LEIXAMPLE","rating":10,"name":"VIAJES_SANHE","latitude":41.3908877,"longitude":2.178348,"category":"TIENDAS","address":"RDA_SANT_PERE30"},
  {"zone":"PEDRALBES","rating":4,"name":"IESE_BUSINESS_SCHOOL","latitude":41.39338991,"longitude":2.10669648,"category":"TIENDAS","address":"AV_PEARSON10"},
  {"zone":"LA_DRETA_DE_LEIXAMPLE","rating":10,"name":"ABALONG","latitude":41.38971687,"longitude":2.17519494,"category":"TIENDAS","address":"RDA_SANT_PERE50"},
  {"zone":"LANTIGA_ESQUERRA_DE_LEIXAMPLE","rating":10,"name":"LA_CASA_DE_LES_CLAUS","latitude":41.3859032,"longitude":2.15398952,"category":"TIENDAS","address":"VALENCIA20"},
  {"zone":"VILAPICINA_I_LA_TORRE_LLOBETA","rating":1,"name":"VITAL_CENTRE_ESPORTIU","latitude":41.42763081,"longitude":2.17147619,"category":"TIENDAS","address":"GRECO10"},
  {"zone":"LA_DRETA_DE_LEIXAMPLE","rating":10,"name":"VIAJES_SANHE","latitude":41.3908877,"longitude":2.178348,"category":"TIENDAS","address":"RDA_SANT_PERE30"},
  {"zone":"EL_RAVAL","rating":5,"name":"NURJAN","latitude":41.38117089,"longitude":2.16718063,"category":"TIENDAS","address":"JOAQUIN_COSTA20"},
  {"zone":"EL_POBLENOU","rating":9,"name":"MARCEL","latitude":41.4004924,"longitude":2.2053887,"category":"TIENDAS","address":"CASTANYS10"},
  {"zone":"LANTIGA_ESQUERRA_DE_LEIXAMPLE","rating":10,"name":"MANDALA","latitude":41.38377539,"longitude":2.15806591,"category":"TIENDAS","address":"DIPUTACIO10"},
  {"zone":"LA_DRETA_DE_LEIXAMPLE","rating":10,"name":"DIAGONAL_321_ADVOCATS","latitude":41.39913886,"longitude":2.17091106,"category":"TIENDAS","address":"AV_DIAGONAL10"},
  {"zone":"LA_DRETA_DE_LEIXAMPLE","rating":10,"name":"SANTANDER","latitude":41.39217847,"longitude":2.17484188,"category":"TIENDAS","address":"GIRONA20"},
  {"zone":"EL_POBLENOU","rating":9,"name":"TECNIVERT","latitude":41.40297597,"longitude":2.20222422,"category":"TIENDAS","address":"PUJADES10"},
  {"zone":"EL_RAVAL","rating":5,"name":"EL_RINCON_DEL_KEBAB","latitude":41.37493474,"longitude":2.17306942,"category":"TIENDAS","address":"AV_PARAL*LEL30"},
  {"zone":"LA_DRETA_DE_LEIXAMPLE","rating":10,"name":"NATUR_HOUSE","latitude":41.39768289,"longitude":2.17011437,"category":"TIENDAS","address":"VALENCIA10"},
  {"zone":"LES_CORTS","rating":4,"name":"GRACIA_ARIAS","latitude":41.38935838,"longitude":2.13789761,"category":"TIENDAS","address":"TAQUIGRAF_GARRIGA40"},
  {"zone":"LANTIGA_ESQUERRA_DE_LEIXAMPLE","rating":10,"name":"CAFETERIA_HABANA","latitude":41.3886259,"longitude":2.15989843,"category":"TIENDAS","address":"ARAGO10"},
  {"zone":"LA_DRETA_DE_LEIXAMPLE","rating":10,"name":"SN","latitude":41.39699053,"longitude":2.17373729,"category":"TIENDAS","address":"CONSELL_DE_CENT20"},
  {"zone":"EL_POBLENOU","rating":9,"name":"BROOMX","latitude":41.3987223,"longitude":2.19548516,"category":"TIENDAS","address":"BADAJOZ10"},
  {"zone":"LES_CORTS","rating":4,"name":"LESSENTIA","latitude":41.39140082,"longitude":2.14095935,"category":"TIENDAS","address":"AV_DIAGONAL30"},
  {"zone":"NAVAS","rating":2,"name":"JC_SOLUTIONS_S.L","latitude":41.41924399,"longitude":2.18300298,"category":"TIENDAS","address":"JUAN_DE_GARAY80"},
  {"zone":"SANT_ANTONI","rating":10,"name":"DIVINA_LUZ","latitude":41.37631848,"longitude":2.15255722,"category":"TIENDAS","address":"VILAMARI10"},
  {"zone":"LA_DRETA_DE_LEIXAMPLE","rating":10,"name":"MUSEU_DEL_MODERNISME_CATALA","latitude":41.38883308,"longitude":2.16343864,"category":"TIENDAS","address":"BALMES10"},
  {"zone":"LA_DRETA_DE_LEIXAMPLE","rating":10,"name":"CINCO_JOTAS","latitude":41.39293621,"longitude":2.16063702,"category":"TIENDAS","address":"RBLA_CATALUNYA20"},
  {"zone":"SANT_ANTONI","rating":10,"name":"SN","latitude":41.3791418,"longitude":2.15693099,"category":"TIENDAS","address":"SEPULVEDA20"},
  {"zone":"EL_CAMP_DE_LARPA_DEL_CLOT","rating":9,"name":"PERRUQUERIA_NATI","latitude":41.41314426,"longitude":2.18057692,"category":"TIENDAS","address":"CONCA10"},
  {"zone":"LA_MATERNITAT_I_SANT_RAMON","rating":4,"name":"EL_PA","latitude":41.3766878,"longitude":2.11431295,"category":"TIENDAS","address":"CARDENAL_REIG10"},
  {"zone":"LA_DRETA_DE_LEIXAMPLE","rating":10,"name":"NEBRASKA","latitude":41.40053465,"longitude":2.17055216,"category":"TIENDAS","address":"ROGER_DE_FLOR20"},
  {"zone":"LA_SALUT","rating":7,"name":"SPELTA","latitude":41.40880401,"longitude":2.1505938,"category":"TIENDAS","address":"MAIGNON10"},
  {"zone":"EL_RAVAL","rating":5,"name":"VERITAS_SUPERMERCATS","latitude":41.38272253,"longitude":2.16857538,"category":"TIENDAS","address":"DOCTOR_DOU10"},
  {"zone":"SANT_ANTONI","rating":10,"name":"ESCOLA_FERRAN_SUNYER","latitude":41.37566536,"longitude":2.16279924,"category":"TIENDAS","address":"VILADOMAT10"},
  {"zone":"LANTIGA_ESQUERRA_DE_LEIXAMPLE","rating":10,"name":"FUR_STYL","latitude":41.38960135,"longitude":2.15901802,"category":"TIENDAS","address":"VALENCIA20"},
  {"zone":"LA_DRETA_DE_LEIXAMPLE","rating":10,"name":"MUJI","latitude":41.39205981,"longitude":2.16183364,"category":"TIENDAS","address":"RBLA_CATALUNYA10"},
  {"zone":"SANT_ANTONI","rating":10,"name":"LABORATORI_COLL_GARCES","latitude":41.37809504,"longitude":2.15470699,"category":"TIENDAS","address":"ROCAFORT10"},
  {"zone":"SANT_ANDREU","rating":2,"name":"RAMBLA48","latitude":41.43020195,"longitude":2.19241083,"category":"TIENDAS","address":"RBLA_ONZE_DE_SETEMBRE10"},
  {"zone":"LANTIGA_ESQUERRA_DE_LEIXAMPLE","rating":10,"name":"ESCOLET_OLIVER","latitude":41.38890102,"longitude":2.15431523,"category":"TIENDAS","address":"CASANOVA10"},
  {"zone":"VILAPICINA_I_LA_TORRE_LLOBETA","rating":1,"name":"SUPERMERCADOS_COVIRAN","latitude":41.42876205,"longitude":2.1803838,"category":"TIENDAS","address":"ESCOCIA10"},
  {"zone":"EL_FORT_PIENC","rating":10,"name":"ESCOLA_DE_BALLET_EULALIA_BLASI","latitude":41.39592313,"longitude":2.18378752,"category":"TIENDAS","address":"ALI_BEI10"},
  {"zone":"LA_VERNEDA_I_LA_PAU","rating":9,"name":"MIS_UNAS","latitude":41.424362,"longitude":2.202567,"category":"TIENDAS","address":"RBLA_PRIM50"},
  {"zone":"LA_DRETA_DE_LEIXAMPLE","rating":10,"name":"J._PORTE_SLU","latitude":41.39644828,"longitude":2.17143327,"category":"TIENDAS","address":"BAILEN80"},
  {"zone":"EL_POBLENOU","rating":9,"name":"DIA_MARKET","latitude":41.40344787,"longitude":2.20692158,"category":"TIENDAS","address":"ESPRONCEDA20"},
  {"zone":"SANT_ANTONI","rating":10,"name":"LABORATORI_COLL_GARCES","latitude":41.37809504,"longitude":2.15470699,"category":"TIENDAS","address":"ROCAFORT10"},
  {"zone":"LA_DRETA_DE_LEIXAMPLE","rating":10,"name":"MANGO","latitude":41.39308594,"longitude":2.16095841,"category":"TIENDAS","address":"RBLA_CATALUNYA10"},
  {"zone":"SANT_ANTONI","rating":10,"name":"PORTUARIA","latitude":41.37567743,"longitude":2.15828508,"category":"TIENDAS","address":"ROCAFORT10"},
  {"zone":"LA_BARCELONETA","rating":5,"name":"XIPNET","latitude":41.38143755,"longitude":2.1883446,"category":"TIENDAS","address":"BALUARD10"},
  {"zone":"LA_DRETA_DE_LEIXAMPLE","rating":10,"name":"LA_TASCA_DOR","latitude":41.39951962,"longitude":2.16735765,"category":"TIENDAS","address":"BAILEN10"},
  {"zone":"NAVAS","rating":2,"name":"2_TORRES","latitude":41.41623392,"longitude":2.18659848,"category":"TIENDAS","address":"AV_MERIDIANA10"},
  {"zone":"LANTIGA_ESQUERRA_DE_LEIXAMPLE","rating":10,"name":"zone_ELEVEN","latitude":41.38659244,"longitude":2.15926275,"category":"TIENDAS","address":"MUNTANER10"},
  {"zone":"LA_DRETA_DE_LEIXAMPLE","rating":10,"name":"MUSEU_DEL_MODERNISME_CATALA","latitude":41.38883308,"longitude":2.16343864,"category":"TIENDAS","address":"BALMES10"},
  {"zone":"EL_CAMP_DE_LARPA_DEL_CLOT","rating":9,"name":"PERRUQUERIA_NATI","latitude":41.41314426,"longitude":2.18057692,"category":"TIENDAS","address":"CONCA10"},
  {"zone":"PEDRALBES","rating":4,"name":"HONEST_FOOD","latitude":41.38726054,"longitude":2.11332053,"category":"TIENDAS","address":"JORDI_GIRONA10"},
  {"zone":"VILAPICINA_I_LA_TORRE_LLOBETA","rating":1,"name":"MULTIPREUS_EUROPREUS","latitude":41.42779572,"longitude":2.18294397,"category":"TIENDAS","address":"RIERA_DHORTA150"},
  {"zone":"CANYELLES","rating":1,"name":"CASAL_INFANTIL_CANYELLES","latitude":41.44317374,"longitude":2.16238752,"category":"TIENDAS","address":"RDA_GUINEUETA_VELLA10"},
  {"zone":"LA_NOVA_ESQUERRA_DE_LEIXAMPLE","rating":10,"name":"ORION","latitude":41.3816443,"longitude":2.15748713,"category":"TIENDAS","address":"G.V._CORTS_CATALANES10"},
  {"zone":"LA_DRETA_DE_LEIXAMPLE","rating":10,"name":"MUSEU_DEL_MODERNISME_CATALA","latitude":41.38883308,"longitude":2.16343864,"category":"TIENDAS","address":"BALMES10"},
  {"zone":"EL_RAVAL","rating":5,"name":"NURJAN","latitude":41.38117089,"longitude":2.16718063,"category":"TIENDAS","address":"JOAQUIN_COSTA20"},
  {"zone":"VALLCARCA_I_ELS_PENITENTS","rating":7,"name":"SN","latitude":41.4137276,"longitude":2.13939294,"category":"TIENDAS","address":"GOMIS10"},
  {"zone":"LA_DRETA_DE_LEIXAMPLE","rating":10,"name":"LAMPISTERIA_J._JURJO_S.L","latitude":41.40233074,"longitude":2.169494,"category":"TIENDAS","address":"ROSSELLO10"},
  {"zone":"LES_CORTS","rating":4,"name":"PELUQUERIA","latitude":41.38853937,"longitude":2.14136168,"category":"TIENDAS","address":"BORDEUS20"},
  {"zone":"LANTIGA_ESQUERRA_DE_LEIXAMPLE","rating":10,"name":"CAPRABO","latitude":41.39310067,"longitude":2.15328188,"category":"TIENDAS","address":"ARIBAU10"},
  {"zone":"LA_DRETA_DE_LEIXAMPLE","rating":10,"name":"GRANJA_LA_SUISSA","latitude":41.39141188,"longitude":2.17371583,"category":"TIENDAS","address":"CASP40"},
  {"zone":"LA_DRETA_DE_LEIXAMPLE","rating":10,"name":"MUSEU_DEL_MODERNISME_CATALA","latitude":41.38883308,"longitude":2.16343864,"category":"TIENDAS","address":"BALMES10"},
  {"zone":"LA_DRETA_DE_LEIXAMPLE","rating":10,"name":"MAJORAL","latitude":41.3907398,"longitude":2.16542512,"category":"TIENDAS","address":"CONSELL_DE_CENT40"},
  {"zone":"LANTIGA_ESQUERRA_DE_LEIXAMPLE","rating":10,"name":"AUSTRALIAN_GOLD","latitude":41.38942826,"longitude":2.15814171,"category":"TIENDAS","address":"ARIBAU10"},
  {"zone":"SANT_ANTONI","rating":10,"name":"RESTAURANT_AUGUST","latitude":41.37561117,"longitude":2.16692106,"category":"TIENDAS","address":"RDA_SANT_PAU10"},
  {"zone":"LES_CORTS","rating":4,"name":"GRACIA_ARIAS","latitude":41.38935838,"longitude":2.13789761,"category":"TIENDAS","address":"TAQUIGRAF_GARRIGA40"},
  {"zone":"VILAPICINA_I_LA_TORRE_LLOBETA","rating":1,"name":"MULTIPREUS_EUROPREUS","latitude":41.42779572,"longitude":2.18294397,"category":"TIENDAS","address":"RIERA_DHORTA150"},
  {"zone":"LA_DRETA_DE_LEIXAMPLE","rating":10,"name":"NEBRASKA","latitude":41.40053465,"longitude":2.17055216,"category":"TIENDAS","address":"ROGER_DE_FLOR20"},
  {"zone":"EL_RAVAL","rating":5,"name":"NURJAN","latitude":41.38117089,"longitude":2.16718063,"category":"TIENDAS","address":"JOAQUIN_COSTA20"},
  {"zone":"LA_DRETA_DE_LEIXAMPLE","rating":10,"name":"NEBRASKA","latitude":41.40053465,"longitude":2.17055216,"category":"TIENDAS","address":"ROGER_DE_FLOR20"},
  {"zone":"EL_FORT_PIENC","rating":10,"name":"MON_VIU","latitude":41.39365145,"longitude":2.17848614,"category":"TIENDAS","address":"AUSIAS_MARC10"},
  {"zone":"PEDRALBES","rating":4,"name":"CASA_DE_CANTABRIA","latitude":41.39079614,"longitude":2.11329103,"category":"TIENDAS","address":"SOR_EULALIA_DANZIZU10"},
  {"zone":"LA_DRETA_DE_LEIXAMPLE","rating":10,"name":"AMSERMAN","latitude":41.396577,"longitude":2.170466,"category":"TIENDAS","address":"ARAGO10"},
  {"zone":"LES_CORTS","rating":4,"name":"MANGLE","latitude":41.38659003,"longitude":2.13517725,"category":"TIENDAS","address":"TRAV_CORTS10"},
  {"zone":"LA_DRETA_DE_LEIXAMPLE","rating":10,"name":"THE_PASSAGE","latitude":41.39450459,"longitude":2.16011435,"category":"TIENDAS","address":"PTGE_CONCEPCIO10"},
  {"zone":"EL_POBLENOU","rating":9,"name":"BAR_TU_Y_YO","latitude":41.40152653,"longitude":2.19683245,"category":"TIENDAS","address":"PERE_IV10"},
  {"zone":"EL_PARC_I_LA_LLACUNA_DEL_POBLENOU","rating":9,"name":"DISTRICTE_SANT_MARTI","latitude":41.39170901,"longitude":2.18460423,"category":"TIENDAS","address":"BUENAVENTURA_MUNOZ10"},
  {"zone":"LA_DRETA_DE_LEIXAMPLE","rating":10,"name":"CAMPER","latitude":41.39271981,"longitude":2.16316402,"category":"TIENDAS","address":"VALENCIA20"},
  {"zone":"LA_DRETA_DE_LEIXAMPLE","rating":10,"name":"AMSERMAN","latitude":41.396577,"longitude":2.170466,"category":"TIENDAS","address":"ARAGO10"},
  {"zone":"SANT_ANTONI","rating":10,"name":"PANQA","latitude":41.37830799,"longitude":2.15617016,"category":"TIENDAS","address":"SEPULVEDA10"},
  {"zone":"LA_DRETA_DE_LEIXAMPLE","rating":10,"name":"SUPERMARKET_URQUINAONA","latitude":41.38991176,"longitude":2.17329606,"category":"TIENDAS","address":"ROGER_DE_LLURIA20"},
  {"zone":"LA_DRETA_DE_LEIXAMPLE","rating":10,"name":"LAMPISTERIA_J._JURJO_S.L","latitude":41.40233074,"longitude":2.169494,"category":"TIENDAS","address":"ROSSELLO10"},
  {"zone":"SANT_ANTONI","rating":10,"name":"QUIOSCO","latitude":41.37841063,"longitude":2.15878934,"category":"TIENDAS","address":"VILADOMAT10"},
  {"zone":"EL_POBLENOU","rating":9,"name":"DIA_MARKET","latitude":41.40344787,"longitude":2.20692158,"category":"TIENDAS","address":"ESPRONCEDA20"},
  {"zone":"SANT_ANTONI","rating":10,"name":"DIVINA_LUZ","latitude":41.37631848,"longitude":2.15255722,"category":"TIENDAS","address":"VILAMARI10"},
  {"zone":"SANT_ANDREU","rating":2,"name":"CLINICA_DENTAL_DOCTORA_REAL","latitude":41.43858065,"longitude":2.18891099,"category":"TIENDAS","address":"GRAN_DE_SANT_ANDREU10"},
  {"zone":"LA_DRETA_DE_LEIXAMPLE","rating":10,"name":"CINCO_JOTAS","latitude":41.39293621,"longitude":2.16063702,"category":"TIENDAS","address":"RBLA_CATALUNYA20"},
  {"zone":"LA_DRETA_DE_LEIXAMPLE","rating":10,"name":"YAMATO_TRANSPORT","latitude":41.39017436,"longitude":2.16167808,"category":"TIENDAS","address":"BALMES20"},
  {"zone":"SANT_ANDREU","rating":2,"name":"EL_REBOST_DE_SANT_ANDREU","latitude":41.43740502,"longitude":2.18919754,"category":"TIENDAS","address":"GRAN_DE_SANT_ANDREU10"},
  {"zone":"EL_RAVAL","rating":5,"name":"VERITAS_SUPERMERCATS","latitude":41.38272253,"longitude":2.16857538,"category":"TIENDAS","address":"DOCTOR_DOU10"},
  {"zone":"NAVAS","rating":2,"name":"EL_RACO_DE_LA_SIO","latitude":41.42049504,"longitude":2.18377814,"category":"TIENDAS","address":"CONCEPCION_ARENAL20"},
  {"zone":"LA_DRETA_DE_LEIXAMPLE","rating":10,"name":"MANGO","latitude":41.39308594,"longitude":2.16095841,"category":"TIENDAS","address":"RBLA_CATALUNYA10"},
  {"zone":"LA_NOVA_ESQUERRA_DE_LEIXAMPLE","rating":10,"name":"BONIQUES","latitude":41.3867333,"longitude":2.14614674,"category":"TIENDAS","address":"CORSEGA20"},
  {"zone":"EL_CLOT","rating":9,"name":"PERRUQUERIA_CANINA","latitude":41.40674118,"longitude":2.19092488,"category":"TIENDAS","address":"G.V._CORTS_CATALANES10"},
  {"zone":"LA_DRETA_DE_LEIXAMPLE","rating":10,"name":"JUGUETERIA","latitude":41.396358,"longitude":2.170177,"category":"TIENDAS","address":"ARAGO10"},
  {"zone":"SANT_ANTONI","rating":10,"name":"PALLAROL","latitude":41.37755023,"longitude":2.15706199,"category":"TIENDAS","address":"FLORIDABLANCA10"},
  {"zone":"LA_DRETA_DE_LEIXAMPLE","rating":10,"name":"LAMPISTERIA_J._JURJO_S.L","latitude":41.40233074,"longitude":2.169494,"category":"TIENDAS","address":"ROSSELLO10"},
  {"zone":"LANTIGA_ESQUERRA_DE_LEIXAMPLE","rating":10,"name":"NAILS_FACTORY","latitude":41.39051342,"longitude":2.16068432,"category":"TIENDAS","address":"VALENCIA20"},
  {"zone":"LA_DRETA_DE_LEIXAMPLE","rating":10,"name":"NEBRASKA","latitude":41.40053465,"longitude":2.17055216,"category":"TIENDAS","address":"ROGER_DE_FLOR20"},
  {"zone":"LES_CORTS","rating":4,"name":"ASICS","latitude":41.39033634,"longitude":2.13714659,"category":"TIENDAS","address":"AV_DIAGONAL30"},
  {"zone":"LA_DRETA_DE_LEIXAMPLE","rating":10,"name":"J._PORTE_SLU","latitude":41.39644828,"longitude":2.17143327,"category":"TIENDAS","address":"BAILEN80"},
  {"zone":"EL_CLOT","rating":9,"name":"IAIA_CELIA","latitude":41.40942178,"longitude":2.18833521,"category":"TIENDAS","address":"ARAGO20"},
  {"zone":"LA_DRETA_DE_LEIXAMPLE","rating":10,"name":"LAMPISTERIA_J._JURJO_S.L","latitude":41.40233074,"longitude":2.169494,"category":"TIENDAS","address":"ROSSELLO10"},
  {"zone":"LA_NOVA_ESQUERRA_DE_LEIXAMPLE","rating":10,"name":"ORION","latitude":41.3816443,"longitude":2.15748713,"category":"TIENDAS","address":"G.V._CORTS_CATALANES10"},
  {"zone":"LES_CORTS","rating":4,"name":"CA_NANDREU","latitude":41.3867401,"longitude":2.13470144,"category":"TIENDAS","address":"TRAV_CORTS40"},
  {"zone":"EL_POBLENOU","rating":9,"name":"BIKEXPRESS","latitude":41.40010337,"longitude":2.198353,"category":"TIENDAS","address":"PUJADES10"},
  {"zone":"EL_POBLENOU","rating":9,"name":"ROLLERGRIND_360","latitude":41.40523739,"longitude":2.19781548,"category":"TIENDAS","address":"CASTELLA20"},
  {"zone":"EL_FORT_PIENC","rating":10,"name":"ARA_MOTOS","latitude":41.39563439,"longitude":2.17874363,"category":"TIENDAS","address":"CASP30"},
  {"zone":"LANTIGA_ESQUERRA_DE_LEIXAMPLE","rating":10,"name":"SA_VIQS","latitude":41.38880902,"longitude":2.15626672,"category":"TIENDAS","address":"MUNTANER20"},
  {"zone":"LA_DRETA_DE_LEIXAMPLE","rating":10,"name":"MAJORAL","latitude":41.3907398,"longitude":2.16542512,"category":"TIENDAS","address":"CONSELL_DE_CENT40"},
  {"zone":"LES_CORTS","rating":4,"name":"CLUB_VELERS_COLLSEROLA","latitude":41.38440194,"longitude":2.12982818,"category":"TIENDAS","address":"DOCTOR_NUBIOLA_I_ESPINOS40"},
  {"zone":"LANTIGA_ESQUERRA_DE_LEIXAMPLE","rating":10,"name":"SA_VIQS","latitude":41.38880902,"longitude":2.15626672,"category":"TIENDAS","address":"MUNTANER20"},
  {"zone":"LANTIGA_ESQUERRA_DE_LEIXAMPLE","rating":10,"name":"SM_ESTUDIO","latitude":41.38793614,"longitude":2.1526249,"category":"TIENDAS","address":"PROVENCA10"},
  {"zone":"LA_DRETA_DE_LEIXAMPLE","rating":10,"name":"NEBRASKA","latitude":41.40053465,"longitude":2.17055216,"category":"TIENDAS","address":"ROGER_DE_FLOR20"},
  {"zone":"LA_DRETA_DE_LEIXAMPLE","rating":10,"name":"YAMATO_TRANSPORT","latitude":41.39017436,"longitude":2.16167808,"category":"TIENDAS","address":"BALMES20"},
  {"zone":"LA_NOVA_ESQUERRA_DE_LEIXAMPLE","rating":10,"name":"INTERSET","latitude":41.380138,"longitude":2.14560594,"category":"TIENDAS","address":"LLANCA140"},
  {"zone":"LA_DRETA_DE_LEIXAMPLE","rating":10,"name":"YAMATO_TRANSPORT","latitude":41.39017436,"longitude":2.16167808,"category":"TIENDAS","address":"BALMES20"},
  {"zone":"EL_FORT_PIENC","rating":10,"name":"MON_VIU","latitude":41.39365145,"longitude":2.17848614,"category":"TIENDAS","address":"AUSIAS_MARC10"},
  {"zone":"PEDRALBES","rating":4,"name":"CASA_DE_CANTABRIA","latitude":41.39079614,"longitude":2.11329103,"category":"TIENDAS","address":"SOR_EULALIA_DANZIZU10"},
  {"zone":"LA_DRETA_DE_LEIXAMPLE","rating":10,"name":"FEDERACIO_DE_MUTUALITATS_DE_CATALUNYA","latitude":41.39381278,"longitude":2.1704558,"category":"TIENDAS","address":"BRUC10"},
  {"zone":"LANTIGA_ESQUERRA_DE_LEIXAMPLE","rating":10,"name":"RESTAURANT_PAMPLONA","latitude":41.39287173,"longitude":2.1501781,"category":"TIENDAS","address":"LONDRES10"},
  {"zone":"LANTIGA_ESQUERRA_DE_LEIXAMPLE","rating":10,"name":"NAILS_FACTORY","latitude":41.39051342,"longitude":2.16068432,"category":"TIENDAS","address":"VALENCIA20"},
  {"zone":"SANT_ANTONI","rating":10,"name":"RESTAURANT_JAPONES_WOK_DAO","latitude":41.38032662,"longitude":2.16292017,"category":"TIENDAS","address":"TAMARIT10"},
  {"zone":"LA_NOVA_ESQUERRA_DE_LEIXAMPLE","rating":10,"name":"LEBARA_JS_COMUNICACIONS","latitude":41.38937079,"longitude":2.14462809,"category":"TIENDAS","address":"VILADOMAT10"},
  {"zone":"EL_POBLENOU","rating":9,"name":"ESTUDI_NOVELL","latitude":41.40043339,"longitude":2.1999922,"category":"TIENDAS","address":"LLACUNA10"},
  {"zone":"LANTIGA_ESQUERRA_DE_LEIXAMPLE","rating":10,"name":"SEMPRONIANA","latitude":41.39102956,"longitude":2.15451121,"category":"TIENDAS","address":"ROSSELLO10"},
  {"zone":"EL_FORT_PIENC","rating":10,"name":"SN","latitude":41.39520984,"longitude":2.18057424,"category":"TIENDAS","address":"AUSIAS_MARC10"},
  {"zone":"LES_CORTS","rating":4,"name":"MANGLE","latitude":41.38659003,"longitude":2.13517725,"category":"TIENDAS","address":"TRAV_CORTS10"},
  {"zone":"LA_DRETA_DE_LEIXAMPLE","rating":10,"name":"ABALONG","latitude":41.38971687,"longitude":2.17519494,"category":"TIENDAS","address":"RDA_SANT_PERE50"},
  {"zone":"VALLCARCA_I_ELS_PENITENTS","rating":7,"name":"HAPPY_CREAM","latitude":41.40946302,"longitude":2.14659736,"category":"TIENDAS","address":"AV_REPUBLICA_ARGENTINA20"},
  {"zone":"LES_CORTS","rating":4,"name":"NEW_LOOK_BY_KODIGO4","latitude":41.39193966,"longitude":2.13322634,"category":"TIENDAS","address":"AV_SARRIA20"},
  {"zone":"LA_DRETA_DE_LEIXAMPLE","rating":10,"name":"DIAGONAL_321_ADVOCATS","latitude":41.39913886,"longitude":2.17091106,"category":"TIENDAS","address":"AV_DIAGONAL10"},
  {"zone":"LA_DRETA_DE_LEIXAMPLE","rating":10,"name":"AMSERMAN","latitude":41.396577,"longitude":2.170466,"category":"TIENDAS","address":"ARAGO10"},
  {"zone":"LANTIGA_ESQUERRA_DE_LEIXAMPLE","rating":10,"name":"CAPRABO","latitude":41.39310067,"longitude":2.15328188,"category":"TIENDAS","address":"ARIBAU10"},
  {"zone":"LA_DRETA_DE_LEIXAMPLE","rating":10,"name":"AMSERMAN","latitude":41.396577,"longitude":2.170466,"category":"TIENDAS","address":"ARAGO10"},
  {"zone":"LA_NOVA_ESQUERRA_DE_LEIXAMPLE","rating":10,"name":"AUTO_EXCLUSIVE","latitude":41.38357373,"longitude":2.14650207,"category":"TIENDAS","address":"PROVENCA10"},
  {"zone":"LA_DRETA_DE_LEIXAMPLE","rating":10,"name":"LAMPISTERIA_J._JURJO_S.L","latitude":41.40233074,"longitude":2.169494,"category":"TIENDAS","address":"ROSSELLO10"},
  {"zone":"LA_DRETA_DE_LEIXAMPLE","rating":10,"name":"HUNGARYTO","latitude":41.397321,"longitude":2.171457,"category":"TIENDAS","address":"ARAGO10"},
  {"zone":"LA_DRETA_DE_LEIXAMPLE","rating":10,"name":"SANTANDER","latitude":41.39217847,"longitude":2.17484188,"category":"TIENDAS","address":"GIRONA20"},
  {"zone":"LA_DRETA_DE_LEIXAMPLE","rating":10,"name":"THE_PASSAGE","latitude":41.39450459,"longitude":2.16011435,"category":"TIENDAS","address":"PTGE_CONCEPCIO10"},
  {"zone":"LA_NOVA_ESQUERRA_DE_LEIXAMPLE","rating":10,"name":"FARMACIA_JORDI_DALMASES","latitude":41.38210671,"longitude":2.15132877,"category":"TIENDAS","address":"ARAGO20"},
  {"zone":"EL_RAVAL","rating":5,"name":"SN","latitude":41.38045341,"longitude":2.16784045,"category":"TIENDAS","address":"RIERA_BAIXA20"},
  {"zone":"EL_POBLENOU","rating":9,"name":"CEPSA","latitude":41.40587188,"longitude":2.2013848,"category":"TIENDAS","address":"LOPE_DE_VEGA10"},
  {"zone":"LA_DRETA_DE_LEIXAMPLE","rating":10,"name":"VIAJES_SANHE","latitude":41.3908877,"longitude":2.178348,"category":"TIENDAS","address":"RDA_SANT_PERE30"},
  {"zone":"SANT_ANTONI","rating":10,"name":"LABORATORI_COLL_GARCES","latitude":41.37809504,"longitude":2.15470699,"category":"TIENDAS","address":"ROCAFORT10"},
  {"zone":"EL_FORT_PIENC","rating":10,"name":"ESCOLA_DE_BALLET_EULALIA_BLASI","latitude":41.39592313,"longitude":2.18378752,"category":"TIENDAS","address":"ALI_BEI10"},
  {"zone":"LANTIGA_ESQUERRA_DE_LEIXAMPLE","rating":10,"name":"JOIERIA_NEFER","latitude":41.39065096,"longitude":2.14908824,"category":"TIENDAS","address":"PARIS10"},
  {"zone":"LES_CORTS","rating":4,"name":"GRACIA_ARIAS","latitude":41.38935838,"longitude":2.13789761,"category":"TIENDAS","address":"TAQUIGRAF_GARRIGA40"},
  {"zone":"LANTIGA_ESQUERRA_DE_LEIXAMPLE","rating":10,"name":"FUTAMI","latitude":41.38856411,"longitude":2.16153465,"category":"TIENDAS","address":"ENRIC_GRANADOS30"},
  {"zone":"LA_NOVA_ESQUERRA_DE_LEIXAMPLE","rating":10,"name":"DRAHIGUERAS","latitude":41.38950326,"longitude":2.14575782,"category":"TIENDAS","address":"LONDRES10"},
  {"zone":"LA_DRETA_DE_LEIXAMPLE","rating":10,"name":"MAS_Q_MENOS","latitude":41.39658998,"longitude":2.17372873,"category":"TIENDAS","address":"PG_SANT_JOAN10"},
  {"zone":"LA_DRETA_DE_LEIXAMPLE","rating":10,"name":"MUSEU_DEL_MODERNISME_CATALA","latitude":41.38883308,"longitude":2.16343864,"category":"TIENDAS","address":"BALMES10"},
  {"zone":"SANT_ANTONI","rating":10,"name":"DIVINA_LUZ","latitude":41.37631848,"longitude":2.15255722,"category":"TIENDAS","address":"VILAMARI10"},
  {"zone":"LA_NOVA_ESQUERRA_DE_LEIXAMPLE","rating":10,"name":"LEBARA_JS_COMUNICACIONS","latitude":41.38937079,"longitude":2.14462809,"category":"TIENDAS","address":"VILADOMAT10"},
  {"zone":"LA_DRETA_DE_LEIXAMPLE","rating":10,"name":"SANTANDER","latitude":41.39217847,"longitude":2.17484188,"category":"TIENDAS","address":"GIRONA20"},
  {"zone":"LA_NOVA_ESQUERRA_DE_LEIXAMPLE","rating":10,"name":"PYPA_PRINT","latitude":41.38002812,"longitude":2.14892565,"category":"TIENDAS","address":"ARAGO10"},
  {"zone":"LA_DRETA_DE_LEIXAMPLE","rating":10,"name":"MUJI","latitude":41.39205981,"longitude":2.16183364,"category":"TIENDAS","address":"RBLA_CATALUNYA10"}
]